id,latitude,longitude,address,sq_mt_built,n_rooms,n_bathrooms,n_floors,sq_mt_allotment,floor,buy_price,is_renewal_needed,has_lift,is_exterior,energy_certificate,has_parking,neighborhood,district,house_type,Unnamed: 0,title,subtitle,sq_mt_useful,raw_address,is_exact_address_hidden,street_name,street_number,portal,is_floor_under,door,neighborhood_id,operation,rent_price,rent_price_by_area,is_rent_price_known,buy_price_by_area,is_buy_price_known,house_type_id,is_new_development,built_year,has_central_heating,has_individual_heating,are_pets_allowed,has_ac,has_fitted_wardrobes,has_garden,has_pool,has_terrace,has_balcony,has_storage_room,is_furnished,is_kitchen_equipped,is_accessible,has_green_zones,has_private_parking,has_public_parking,is_parking_included_in_price,parking_price,is_orientation_north,is_orientation_west,is_orientation_south,is_orientation_east
21742,40.3445124,-3.6894412,"Calle de Godella, 64, San Cristóbal, Madrid",64.0,2,1,1,0.0,3,85000,False,False,True,4,False,135,21,1,0,"Piso en venta en calle de Godella, 64","San Cristóbal, Madrid",60.0,"Calle de Godella, 64",False,Calle de Godella,64,,False,,Neighborhood 135: San Cristóbal (1308.89 €/m2) - District 21: Villaverde,sale,471,,False,1328,True,HouseType 1: Pisos,False,1960.0,,,,True,,,,,,,,,,,,,,,False,True,False,False
21741,40.3538503,-3.6983625,"Calle de la del Manojo de Rosas, Los Ángeles, Madrid",70.0,3,1,1,0.0,4,129900,True,True,True,0,False,132,21,1,1,Piso en venta en calle de la del Manojo de Rosas,"Los Ángeles, Madrid",,Calle de la del Manojo de Rosas,True,Calle de la del Manojo de Rosas,,,False,,Neighborhood 132: Los Ángeles (1796.68 €/m2) - District 21: Villaverde,sale,666,,False,1856,True,HouseType 1: Pisos,False,,,,,,True,,,True,,,,,,,,,,,,,,
21738,40.3533802,-3.6901152,"Carretera de Villaverde a Vallecas, Los Rosales, Madrid",108.0,2,2,1,0.0,4,260000,False,True,True,0,True,133,21,1,4,Piso en venta en carretera de Villaverde a Vallecas,"Los Rosales, Madrid",90.0,Carretera de Villaverde a Vallecas,True,Carretera de Villaverde a Vallecas,,,False,,Neighborhood 133: Los Rosales (1827.79 €/m2) - District 21: Villaverde,sale,1094,,False,2407,True,HouseType 1: Pisos,False,2003.0,,,,True,True,,True,,,True,,,,True,,,True,0.0,True,True,True,True
21733,40.3532352,-3.6899154,"Calle de Martinez Oviol, Los Rosales, Madrid",85.0,2,1,1,0.0,7,131400,True,False,True,0,False,133,21,1,9,Piso en venta en calle de Martinez Oviol,"Los Rosales, Madrid",,Calle de Martinez Oviol,True,Calle de Martinez Oviol,,,False,,Neighborhood 133: Los Rosales (1827.79 €/m2) - District 21: Villaverde,sale,672,,False,1546,True,HouseType 1: Pisos,False,1950.0,False,True,,,,,,True,,,,,,,,,,,False,True,False,False
21730,40.3613894,-3.6894222,"Calle de la Unanimidad, 67, Los Rosales, Madrid",123.0,3,2,1,0.0,4,195000,False,True,True,4,False,133,21,1,12,"Piso en venta en calle de la Unanimidad, 67","Los Rosales, Madrid",104.0,"Calle de la Unanimidad, 67",False,Calle de la Unanimidad,67,,False,,Neighborhood 133: Los Rosales (1827.79 €/m2) - District 21: Villaverde,sale,901,,False,1585,True,HouseType 1: Pisos,False,1992.0,,,,True,True,,,,,,,,,,,,,,False,False,False,True
21729,40.35101745,-3.701777508622853,"Calle de Anoeta, 63, Los Ángeles, Madrid",109.0,3,2,1,0.0,3,205000,False,True,True,3,False,132,21,1,13,"Piso en venta en calle de Anoeta, 63","Los Ángeles, Madrid",90.0,"Calle de Anoeta, 63",False,Calle de Anoeta,63,,False,,Neighborhood 132: Los Ángeles (1796.68 €/m2) - District 21: Villaverde,sale,933,,False,1881,True,HouseType 1: Pisos,False,1983.0,,,,,True,,,True,,True,,,,,,,,,False,False,True,False
21727,40.3528454,-3.6894826,"Calle San Macario, Los Rosales, Madrid",115.0,3,1,1,0.0,3,160000,False,False,True,0,False,133,21,1,15,Piso en venta en calle San Macario,"Los Rosales, Madrid",,Calle San Macario,True,Calle San Macario,,,False,,Neighborhood 133: Los Rosales (1827.79 €/m2) - District 21: Villaverde,sale,780,,False,1391,True,HouseType 1: Pisos,False,,False,True,,True,,,,True,,True,,,,,,,,,,,,
21719,40.2851537,-3.7934286,"Camino Leganés, San Andrés, Madrid",51.0,2,1,1,0.0,-2,93000,False,False,True,0,False,134,21,1,23,Piso en venta en camino Leganés,"San Andrés, Madrid",,Camino Leganés,True,Camino Leganés,,,True,,Neighborhood 134: San Andrés (1617.18 €/m2) - District 21: Villaverde,sale,508,,False,1824,True,HouseType 1: Pisos,False,,,,,,,,,,,,,,,,,,,,,,,
21714,40.3533128,-3.6909843,"Calle Villajoyosa, Los Rosales, Madrid",65.0,3,1,1,0.0,1,150000,True,True,True,0,False,133,21,1,28,Piso en venta en calle Villajoyosa,"Los Rosales, Madrid",63.0,Calle Villajoyosa,True,Calle Villajoyosa,,,False,,Neighborhood 133: Los Rosales (1827.79 €/m2) - District 21: Villaverde,sale,744,,False,2308,True,HouseType 1: Pisos,False,1976.0,False,True,,,True,,True,,,,,,,,,,,,,,,
21708,40.3540323,-3.6816541,"Concepción de la Oliva, 21, Butarque, Madrid",61.0,3,1,1,0.0,5,100000,False,False,True,0,False,131,21,1,34,"Piso en venta en Concepción de la Oliva, 21","Butarque, Madrid",56.0,"Concepción de la Oliva, 21",False,Concepción de la Oliva,21,,False,,Neighborhood 131: Butarque (2197.8 €/m2) - District 21: Villaverde,sale,539,,False,1639,True,HouseType 1: Pisos,False,1966.0,False,True,,,,,,,True,,,,,,,,,,True,False,True,False
21704,40.3545402,-3.6943774,"Calle la Dolorosa, Los Ángeles, Madrid",78.0,4,1,1,0.0,2,146700,False,True,True,1,False,132,21,1,38,Piso en venta en calle la Dolorosa,"Los Ángeles, Madrid",63.0,Calle la Dolorosa,True,Calle la Dolorosa,,,False,,Neighborhood 132: Los Ángeles (1796.68 €/m2) - District 21: Villaverde,sale,731,,False,1881,True,HouseType 1: Pisos,,,,,,,True,,,,,,,,True,,,,,,False,False,True,False
21703,40.350523,-3.6877894,"Calle Encarnación Oviol, Los Rosales, Madrid",52.0,1,1,1,0.0,1,92500,False,False,True,1,False,133,21,1,39,Piso en venta en calle Encarnación Oviol,"Los Rosales, Madrid",41.0,Calle Encarnación Oviol,True,Calle Encarnación Oviol,,,False,,Neighborhood 133: Los Rosales (1827.79 €/m2) - District 21: Villaverde,sale,505,,False,1779,True,HouseType 1: Pisos,,,False,True,,True,,,,,,,,,,,,,,,,,,
21702,40.34903,-3.6760582,"Calle ESTEFANITA, Butarque, Madrid",125.0,3,3,2,0.0,7,275000,False,True,True,4,False,131,21,4,40,Dúplex en venta en calle ESTEFANITA,"Butarque, Madrid",,Calle ESTEFANITA,True,Calle ESTEFANITA,,,False,,Neighborhood 131: Butarque (2197.8 €/m2) - District 21: Villaverde,sale,1135,,False,2200,True,HouseType 4: Dúplex,False,2004.0,,,,True,,,True,True,,True,,,,,,,,,,,,
21700,40.338156,-3.679459,"Calle Arroyo de la Bulera, 31, Butarque, Madrid",97.0,2,2,1,0.0,-1,266122,False,True,True,0,False,131,21,1,42,"Piso en venta en calle Arroyo de la Bulera, 31","Butarque, Madrid",73.0,"Calle Arroyo de la Bulera, 31",False,Calle Arroyo de la Bulera,31,,True,,Neighborhood 131: Butarque (2197.8 €/m2) - District 21: Villaverde,sale,1111,,False,2744,True,HouseType 1: Pisos,True,,,,,,,,True,True,,,,,,True,,,,,,,,
21697,40.3389062,-3.6772808,"Villaverde a perales, Butarque, Madrid",83.0,2,2,1,0.0,7,228273,False,True,True,0,True,131,21,5,45,Ático en venta en Villaverde a perales,"Butarque, Madrid",69.0,Villaverde a perales,True,Villaverde a perales,,,False,,Neighborhood 131: Butarque (2197.8 €/m2) - District 21: Villaverde,sale,1004,,False,2750,True,HouseType 5: Áticos,False,2020.0,False,True,,True,True,,True,True,,True,,,True,True,,,True,0.0,,,,
21696,40.3516949,-3.6886659,"Calle de Juan José Martínez Seco, Los Rosales, Madrid",45.0,2,1,1,0.0,1,85000,True,False,True,3,False,133,21,1,46,Piso en venta en calle de Juan José Martínez Seco,"Los Rosales, Madrid",41.0,Calle de Juan José Martínez Seco,True,Calle de Juan José Martínez Seco,,,False,,Neighborhood 133: Los Rosales (1827.79 €/m2) - District 21: Villaverde,sale,471,,False,1889,True,HouseType 1: Pisos,False,1968.0,False,True,,,,,,,True,,,,,,,,,,,,,
21693,40.34903,-3.6760582,"Calle Estefanita, 6, Butarque, Madrid",125.0,3,2,2,0.0,7,272500,False,True,True,2,False,131,21,4,49,"Dúplex en venta en calle Estefanita, 6","Butarque, Madrid",,"Calle Estefanita, 6",False,Calle Estefanita,6,,False,,Neighborhood 131: Butarque (2197.8 €/m2) - District 21: Villaverde,sale,1128,,False,2180,True,HouseType 4: Dúplex,False,2004.0,False,True,,,True,,True,True,,True,,,,True,,,,,,,,
21692,40.3376362,-3.6755232,"Calle Berrocal, Butarque, Madrid",126.0,4,2,1,0.0,-1,275000,False,True,True,0,True,131,21,1,50,Piso en venta en calle Berrocal,"Butarque, Madrid",105.0,Calle Berrocal,True,Calle Berrocal,,,True,,Neighborhood 131: Butarque (2197.8 €/m2) - District 21: Villaverde,sale,1135,,False,2183,True,HouseType 1: Pisos,False,,False,True,,True,True,,True,True,,True,,,True,True,,,True,0.0,False,False,True,True
21691,40.3560432,-3.6820183,"Calle Euskalduna, 14, Butarque, Madrid",158.0,3,2,1,0.0,4,289000,False,True,True,0,True,131,21,5,51,"Ático en venta en calle Euskalduna, 14","Butarque, Madrid",,"Calle Euskalduna, 14",False,Calle Euskalduna,14,,False,,Neighborhood 131: Butarque (2197.8 €/m2) - District 21: Villaverde,sale,1172,,False,1829,True,HouseType 5: Áticos,False,2003.0,False,True,,True,True,,True,True,,True,,,,True,,,True,0.0,,,,
21689,40.3492523,-3.6991973,"Calle Alcocer, Los Ángeles, Madrid",108.0,3,2,1,0.0,4,179000,False,True,True,0,False,132,21,1,53,Piso en venta en calle Alcocer,"Los Ángeles, Madrid",,Calle Alcocer,True,Calle Alcocer,,,False,,Neighborhood 132: Los Ángeles (1796.68 €/m2) - District 21: Villaverde,sale,847,,False,1657,True,HouseType 1: Pisos,False,1978.0,,,,,True,,,True,,,,,,,,,,,,,,
21687,40.3499666,-3.6855347,"Calle Topacio, Los Rosales, Madrid",51.0,2,1,1,0.0,3,89500,True,False,True,0,False,133,21,1,55,Piso en venta en calle Topacio,"Los Rosales, Madrid",,Calle Topacio,True,Calle Topacio,,,False,,Neighborhood 133: Los Rosales (1827.79 €/m2) - District 21: Villaverde,sale,492,,False,1755,True,HouseType 1: Pisos,False,1967.0,,,,,,,,True,,,,,,,,,,,False,False,False,True
21686,40.350704,-3.6791499,"Calle Calcio, 15, Butarque, Madrid",112.0,3,2,1,0.0,3,289000,False,True,True,3,True,131,21,1,56,"Piso en venta en calle Calcio, 15","Butarque, Madrid",80.0,"Calle Calcio, 15",False,Calle Calcio,15,,False,,Neighborhood 131: Butarque (2197.8 €/m2) - District 21: Villaverde,sale,1172,,False,2580,True,HouseType 1: Pisos,False,2013.0,False,True,,True,True,,True,,,True,,,True,True,,,True,0.0,False,False,True,False
21685,40.3408421,-3.6773645,"Calle Camas, 2, Butarque, Madrid",109.0,3,2,1,0.0,2,216278,False,True,True,0,True,131,21,1,57,"Piso en venta en calle Camas, 2","Butarque, Madrid",,"Calle Camas, 2",False,Calle Camas,2,,False,,Neighborhood 131: Butarque (2197.8 €/m2) - District 21: Villaverde,sale,968,,False,1984,True,HouseType 1: Pisos,True,,False,True,,,,,True,True,,True,,,,,,,True,0.0,,,,
21671,40.3384998,-3.6764999,"Calle Ganados del Salobral , 12, Butarque, Madrid",111.0,2,2,1,0.0,6,230749,False,True,True,0,True,131,21,5,71,"Ático en venta en calle Ganados del Salobral , 12","Butarque, Madrid",,"Calle Ganados del Salobral , 12",False,Calle Ganados del Salobral ,12,,False,,Neighborhood 131: Butarque (2197.8 €/m2) - District 21: Villaverde,sale,1011,,False,2079,True,HouseType 5: Áticos,True,,,,,,,,True,True,,True,,,,,,,True,0.0,,,,
21655,40.3474954,-3.6903199,"Calle del Estroncio, Los Rosales, Madrid",58.0,3,1,1,0.0,2,85000,False,False,True,3,False,133,21,1,87,Piso en venta en calle del Estroncio,"Los Rosales, Madrid",,Calle del Estroncio,True,Calle del Estroncio,,,False,,Neighborhood 133: Los Rosales (1827.79 €/m2) - District 21: Villaverde,sale,471,,False,1466,True,HouseType 1: Pisos,False,1951.0,,,,True,,,,,,,,,,,,,,,,,,
21654,40.3412702,-3.692492,"Calle Moncada, San Cristóbal, Madrid",65.0,3,1,1,0.0,1,94000,False,False,True,0,False,135,21,1,88,Piso en venta en calle Moncada,"San Cristóbal, Madrid",,Calle Moncada,True,Calle Moncada,,,False,,Neighborhood 135: San Cristóbal (1308.89 €/m2) - District 21: Villaverde,sale,512,,False,1446,True,HouseType 1: Pisos,False,,False,True,,True,True,,,True,,,,,,,,,,,False,False,False,True
21649,40.3600535,-3.6854073,"Calle de la Generosidad, 16, Los Rosales, Madrid",125.0,3,2,1,0.0,1,210000,False,True,True,6,True,133,21,1,93,"Piso en venta en calle de la Generosidad, 16","Los Rosales, Madrid",87.0,"Calle de la Generosidad, 16",False,Calle de la Generosidad,16,,False,,Neighborhood 133: Los Rosales (1827.79 €/m2) - District 21: Villaverde,sale,948,,False,1680,True,HouseType 1: Pisos,False,1996.0,False,True,,True,True,,,,,True,,,True,,,,True,0.0,,,,
21647,40.3613252,-3.6941562,"Avenida de la Verbena de la Paloma, Los Ángeles, Madrid",92.0,3,1,1,0.0,6,159900,False,True,True,0,False,132,21,1,95,Piso en venta en avenida de la Verbena de la Paloma,"Los Ángeles, Madrid",,Avenida de la Verbena de la Paloma,True,Avenida de la Verbena de la Paloma,,,False,,Neighborhood 132: Los Ángeles (1796.68 €/m2) - District 21: Villaverde,sale,780,,False,1738,True,HouseType 1: Pisos,False,1962.0,False,True,,True,,,,True,,,,,,,,,,,,,,
21642,40.3537243,-3.6856109,"Calle de Campos Ibáñez, Los Rosales, Madrid",65.0,2,1,1,0.0,3,106500,False,False,True,0,False,133,21,1,100,Piso en venta en calle de Campos Ibáñez,"Los Rosales, Madrid",52.0,Calle de Campos Ibáñez,True,Calle de Campos Ibáñez,,,False,,Neighborhood 133: Los Rosales (1827.79 €/m2) - District 21: Villaverde,sale,568,,False,1638,True,HouseType 1: Pisos,False,1963.0,False,True,,True,True,,,True,,,,,,,,,,,False,False,True,False
21641,40.3513,-3.6863925,"Calle DIAMANTE, Los Rosales, Madrid",102.0,3,2,1,0.0,3,127500,False,False,True,0,False,133,21,1,101,Piso en venta en calle DIAMANTE,"Los Rosales, Madrid",81.0,Calle DIAMANTE,True,Calle DIAMANTE,,,False,,Neighborhood 133: Los Rosales (1827.79 €/m2) - District 21: Villaverde,sale,656,,False,1250,True,HouseType 1: Pisos,False,1964.0,False,True,,,,,,True,,,,,,,,,,,False,True,False,False
21639,40.3460197,-3.6769863,"Calle Canchal, Butarque, Madrid",108.0,2,1,2,0.0,4,205000,False,True,True,3,True,131,21,4,103,Dúplex en venta en calle Canchal,"Butarque, Madrid",,Calle Canchal,True,Calle Canchal,,,False,,Neighborhood 131: Butarque (2197.8 €/m2) - District 21: Villaverde,sale,933,,False,1898,True,HouseType 4: Dúplex,False,2002.0,False,True,,True,,,True,True,,True,,,,,,,True,0.0,False,False,False,True
21638,40.3513,-3.6863925,"Calle Diamante, Los Rosales, Madrid",80.0,3,2,1,0.0,4,220000,False,True,True,3,True,133,21,1,104,Piso en venta en calle Diamante,"Los Rosales, Madrid",,Calle Diamante,True,Calle Diamante,,,False,,Neighborhood 133: Los Rosales (1827.79 €/m2) - District 21: Villaverde,sale,979,,False,2750,True,HouseType 1: Pisos,False,2000.0,False,True,,True,True,,True,,,,,,True,True,,,True,0.0,False,False,True,True
21637,40.3489871,-3.6891362,"Calle Platino, Los Rosales, Madrid",16.0,3,1,1,0.0,1,114000,False,False,True,3,False,133,21,1,105,Piso en venta en calle Platino,"Los Rosales, Madrid",,Calle Platino,True,Calle Platino,,,False,,Neighborhood 133: Los Rosales (1827.79 €/m2) - District 21: Villaverde,sale,600,,False,7125,True,HouseType 1: Pisos,False,1970.0,False,True,,,,,,,,,,,,,,,,,False,False,True,True
21633,40.3588683,-3.6899793,"Avenida de la Felicidad, Los Rosales, Madrid",123.0,4,2,1,0.0,3,275000,False,True,True,0,False,133,21,1,109,Piso en venta en avenida de la Felicidad,"Los Rosales, Madrid",,Avenida de la Felicidad,True,Avenida de la Felicidad,,,False,,Neighborhood 133: Los Rosales (1827.79 €/m2) - District 21: Villaverde,sale,1135,,False,2236,True,HouseType 1: Pisos,,,,,,True,,,,True,,,,,,True,,,,,,,,
21632,40.351882,-3.6949633,"Calle Escoriaza, Los Ángeles, Madrid",64.0,3,1,1,0.0,5,104000,False,False,True,0,False,132,21,1,110,Piso en venta en calle Escoriaza,"Los Ángeles, Madrid",,Calle Escoriaza,True,Calle Escoriaza,,,False,,Neighborhood 132: Los Ángeles (1796.68 €/m2) - District 21: Villaverde,sale,557,,False,1625,True,HouseType 1: Pisos,False,,False,True,,True,,,,,,,,,,,,,,,,,,
21614,40.3507539,-3.701507908925282,"Calle Anoeta, 59, Los Ángeles, Madrid",90.0,3,2,1,0.0,2,195000,False,True,True,0,False,132,21,1,128,"Piso en venta en calle Anoeta, 59","Los Ángeles, Madrid",,"Calle Anoeta, 59",False,Calle Anoeta,59,,False,,Neighborhood 132: Los Ángeles (1796.68 €/m2) - District 21: Villaverde,sale,901,,False,2167,True,HouseType 1: Pisos,False,1985.0,False,True,,True,,,,True,,True,,,,,,,,,,,,
21608,40.3389062,-3.6772808,"Villaverde a Perales, Butarque, Madrid",98.0,3,2,1,0.0,-1,266122,False,True,True,0,True,131,21,1,134,Piso en venta en Villaverde a Perales,"Butarque, Madrid",86.0,Villaverde a Perales,True,Villaverde a Perales,,,True,,Neighborhood 131: Butarque (2197.8 €/m2) - District 21: Villaverde,sale,1111,,False,2716,True,HouseType 1: Pisos,False,2020.0,False,True,,,True,,True,True,,True,,,True,True,,,True,0.0,False,True,False,False
21607,40.3389062,-3.6772808,"villaverde a perales, Butarque, Madrid",97.0,3,2,1,0.0,-1,261989,False,True,True,0,True,131,21,1,135,Piso en venta en villaverde a perales,"Butarque, Madrid",83.0,villaverde a perales,True,villaverde a perales,,,True,,Neighborhood 131: Butarque (2197.8 €/m2) - District 21: Villaverde,sale,1100,,False,2701,True,HouseType 1: Pisos,False,2020.0,False,True,,True,True,,True,True,,True,,,True,True,,,True,0.0,,,,
21602,40.3441954,-3.6750091,"Calle Limonita, 5, Butarque, Madrid",90.0,3,2,1,0.0,2,225000,False,True,True,0,True,131,21,1,140,"Piso en venta en calle Limonita, 5","Butarque, Madrid",73.0,"Calle Limonita, 5",False,Calle Limonita,5,,False,,Neighborhood 131: Butarque (2197.8 €/m2) - District 21: Villaverde,sale,994,,False,2500,True,HouseType 1: Pisos,False,,,,,True,True,,True,,,True,,,,True,,,True,0.0,,,,
21601,40.3570425,-3.685489,"Calle Flora Tristán, 1, Los Rosales, Madrid",133.0,2,1,1,0.0,6,264000,False,True,True,5,True,133,21,1,141,"Piso en venta en calle Flora Tristán, 1","Los Rosales, Madrid",80.0,"Calle Flora Tristán, 1",False,Calle Flora Tristán,1,,False,,Neighborhood 133: Los Rosales (1827.79 €/m2) - District 21: Villaverde,sale,1105,,False,1985,True,HouseType 1: Pisos,False,2003.0,False,True,,True,True,,True,True,True,True,,,True,True,,,True,0.0,,,,
21600,40.3484649,-3.6886982,"EDUARDO MINGUITO, Los Rosales, Madrid",60.0,3,1,1,0.0,2,98260,False,False,True,2,False,133,21,1,142,Piso en venta en EDUARDO MINGUITO,"Los Rosales, Madrid",,EDUARDO MINGUITO,True,EDUARDO MINGUITO,,,False,,Neighborhood 133: Los Rosales (1827.79 €/m2) - District 21: Villaverde,sale,531,,False,1638,True,HouseType 1: Pisos,False,1960.0,False,True,,,,,,,,,,,,,,,,,,,,
21599,40.34903,-3.6760582,"Calle Estefanita, Butarque, Madrid",133.0,3,3,1,0.0,7,275000,False,True,True,4,False,131,21,1,143,Piso en venta en calle Estefanita,"Butarque, Madrid",101.0,Calle Estefanita,True,Calle Estefanita,,,False,,Neighborhood 131: Butarque (2197.8 €/m2) - District 21: Villaverde,sale,1135,,False,2068,True,HouseType 1: Pisos,False,2004.0,False,True,,,True,,True,True,,True,,,,,,,,,,,,
21585,40.3389062,-3.6772808,"villaverde a perales s/n, Butarque, Madrid",104.0,3,2,1,0.0,1,273352,False,True,True,0,True,131,21,1,157,Piso en venta en villaverde a perales s/n,"Butarque, Madrid",88.0,villaverde a perales s/n,False,,,,False,,Neighborhood 131: Butarque (2197.8 €/m2) - District 21: Villaverde,sale,1131,,False,2628,True,HouseType 1: Pisos,False,2020.0,False,True,,True,True,,True,True,,True,,,True,True,,,True,0.0,False,True,True,False
21584,40.3412702,-3.692492,"Calle MONCADA, San Cristóbal, Madrid",66.0,3,1,1,0.0,1,104900,False,True,True,0,False,135,21,1,158,Piso en venta en calle MONCADA,"San Cristóbal, Madrid",,Calle MONCADA,True,Calle MONCADA,,,False,,Neighborhood 135: San Cristóbal (1308.89 €/m2) - District 21: Villaverde,sale,561,,False,1589,True,HouseType 1: Pisos,False,,False,True,,,True,,,True,,,,,,,,,,,,,,
21582,40.3412012,-3.6848013,"Calle de Paterna, San Cristóbal, Madrid",74.0,3,1,1,0.0,1,100000,False,False,True,3,False,135,21,1,160,Piso en venta en calle de Paterna,"San Cristóbal, Madrid",69.0,Calle de Paterna,True,Calle de Paterna,,,False,,Neighborhood 135: San Cristóbal (1308.89 €/m2) - District 21: Villaverde,sale,539,,False,1351,True,HouseType 1: Pisos,False,1968.0,,,,,,,,,,,,,,,,,,,,,,
21581,40.3560432,-3.6820183,"Calle Euskalduna, Butarque, Madrid",97.0,2,1,1,0.0,-1,210000,False,True,True,4,True,131,21,1,161,Piso en venta en calle Euskalduna,"Butarque, Madrid",,Calle Euskalduna,True,Calle Euskalduna,,,True,,Neighborhood 131: Butarque (2197.8 €/m2) - District 21: Villaverde,sale,948,,False,2165,True,HouseType 1: Pisos,False,2003.0,False,True,,,True,,True,True,,True,,,True,,,,True,0.0,False,False,True,True
21577,40.3570991,-3.6841334,"Calle Augustóbriga, 5, Los Rosales, Madrid",151.0,3,2,1,0.0,6,314000,False,True,True,0,True,133,21,1,165,"Piso en venta en calle Augustóbriga, 5","Los Rosales, Madrid",100.0,"Calle Augustóbriga, 5",False,Calle Augustóbriga,5,,False,,Neighborhood 133: Los Rosales (1827.79 €/m2) - District 21: Villaverde,sale,1235,,False,2079,True,HouseType 1: Pisos,False,,False,True,,True,True,,True,,,True,,,True,True,,,True,0.0,,,,
21576,40.3486538,-3.6846931,"Benimamet, San Cristóbal, Madrid",69.0,3,1,1,0.0,4,107000,False,False,True,0,False,135,21,1,166,Piso en venta en Benimamet,"San Cristóbal, Madrid",,Benimamet,True,Benimamet,,,False,,Neighborhood 135: San Cristóbal (1308.89 €/m2) - District 21: Villaverde,sale,570,,False,1551,True,HouseType 1: Pisos,False,1961.0,,,,,,,,True,,True,,,,,,,,,,,,
21575,40.350704,-3.6791499,"Calle Calcio, 20, Butarque, Madrid",170.0,3,2,1,0.0,8,325000,False,True,True,0,True,131,21,5,167,"Ático en venta en calle Calcio, 20","Butarque, Madrid",,"Calle Calcio, 20",False,Calle Calcio,20,,False,,Neighborhood 131: Butarque (2197.8 €/m2) - District 21: Villaverde,sale,1262,,False,1912,True,HouseType 5: Áticos,False,2010.0,False,True,,True,True,,True,True,,True,,,True,True,,,True,0.0,False,False,True,True
21574,40.3484649,-3.6886982,"Calle Eduardo Minguito, Los Rosales, Madrid",48.0,2,1,1,0.0,2,89000,False,False,True,3,False,133,21,1,168,Piso en venta en calle Eduardo Minguito,"Los Rosales, Madrid",39.0,Calle Eduardo Minguito,True,Calle Eduardo Minguito,,,,,Neighborhood 133: Los Rosales (1827.79 €/m2) - District 21: Villaverde,sale,489,,False,1854,True,HouseType 1: Pisos,,1971.0,,,,,,,,,,,,,,,,,,,,,,
21573,40.3570425,-3.685489,"Calle Flora Tristán, 10, Los Rosales, Madrid",98.0,3,2,1,0.0,7,284900,False,True,True,0,True,133,21,1,169,"Piso en venta en calle Flora Tristán, 10","Los Rosales, Madrid",,"Calle Flora Tristán, 10",False,Calle Flora Tristán,10,,False,,Neighborhood 133: Los Rosales (1827.79 €/m2) - District 21: Villaverde,sale,1161,,False,2907,True,HouseType 1: Pisos,False,2001.0,False,True,,True,True,,True,,,True,,,,True,,,True,0.0,True,False,False,True
21557,40.3570991,-3.6841334,"Calle Augustóbriga, Los Rosales, Madrid",25.0,0,1,1,0.0,-1,129000,False,True,True,0,True,133,21,3,185,Estudio en venta en calle Augustóbriga,"Los Rosales, Madrid",,Calle Augustóbriga,True,Calle Augustóbriga,,,,,Neighborhood 133: Los Rosales (1827.79 €/m2) - District 21: Villaverde,sale,662,,False,5160,True,,False,,,,,,,,True,,,True,,,,True,,,True,0.0,,,,
21555,40.3540323,-3.6816541,"Calle Concepción de la Oliva, Butarque, Madrid",58.0,3,1,1,0.0,3,105000,False,False,True,3,False,131,21,1,187,Piso en venta en calle Concepción de la Oliva,"Butarque, Madrid",48.0,Calle Concepción de la Oliva,True,Calle Concepción de la Oliva,,,False,,Neighborhood 131: Butarque (2197.8 €/m2) - District 21: Villaverde,sale,561,,False,1810,True,HouseType 1: Pisos,False,1966.0,False,True,,,,,,,True,,,,,,,,,,False,False,True,False
21554,40.3376362,-3.6755232,"Calle de Berrocal, Butarque, Madrid",115.0,3,2,1,0.0,6,216000,False,True,True,0,True,131,21,1,188,Piso en venta en calle de Berrocal,"Butarque, Madrid",,Calle de Berrocal,True,Calle de Berrocal,,,False,,Neighborhood 131: Butarque (2197.8 €/m2) - District 21: Villaverde,sale,967,,False,1878,True,HouseType 1: Pisos,,2001.0,False,True,,True,,,True,,,,,,,,,,True,0.0,,,,
21550,40.3425833,-3.6883594,"GODELLA, San Cristóbal, Madrid",95.0,2,2,1,0.0,5,184000,False,True,True,0,False,135,21,1,192,Piso en venta en GODELLA,"San Cristóbal, Madrid",87.0,GODELLA,True,GODELLA,,,False,,Neighborhood 135: San Cristóbal (1308.89 €/m2) - District 21: Villaverde,sale,864,,False,1937,True,HouseType 1: Pisos,False,2011.0,False,True,,,True,,,,,True,,,True,,,,,,True,False,False,True
21548,40.3584213,-3.6829116,"María de Echarri, Los Rosales, Madrid",178.0,4,2,1,0.0,5,299990,False,True,True,0,True,133,21,1,194,Piso en venta en María de Echarri,"Los Rosales, Madrid",,María de Echarri,True,María de Echarri,,,False,,Neighborhood 133: Los Rosales (1827.79 €/m2) - District 21: Villaverde,sale,1200,,False,1685,True,HouseType 1: Pisos,False,,False,True,,True,True,,True,,True,True,,,True,True,,,True,0.0,,,,
21547,40.3535606,-3.6847453,"Calle Fuente de la Capona, Los Rosales, Madrid",59.0,2,1,1,0.0,2,117000,False,False,True,0,False,133,21,1,195,Piso en venta en calle Fuente de la Capona,"Los Rosales, Madrid",,Calle Fuente de la Capona,True,Calle Fuente de la Capona,,,False,,Neighborhood 133: Los Rosales (1827.79 €/m2) - District 21: Villaverde,sale,613,,False,1983,True,HouseType 1: Pisos,False,,False,True,,True,,,,True,,,,,,,,,,,,,,
21546,40.3545782,-3.695308,"Calle de la Alegría de la Huerta, Los Ángeles, Madrid",100.0,4,1,1,0.0,-1,165000,False,True,True,0,False,132,21,1,196,Piso en venta en calle de la Alegría de la Huerta,"Los Ángeles, Madrid",,Calle de la Alegría de la Huerta,True,Calle de la Alegría de la Huerta,,,True,,Neighborhood 132: Los Ángeles (1796.68 €/m2) - District 21: Villaverde,sale,798,,False,1650,True,HouseType 1: Pisos,False,,True,False,,,,,,,,,,,True,,,,,,,,,
21540,40.3525553,-3.6811527,"Calle Tántalo, Butarque, Madrid",95.0,3,1,1,0.0,3,100000,True,False,True,0,False,131,21,1,202,Piso en venta en calle Tántalo,"Butarque, Madrid",,Calle Tántalo,True,Calle Tántalo,,,False,,Neighborhood 131: Butarque (2197.8 €/m2) - District 21: Villaverde,sale,539,,False,1053,True,HouseType 1: Pisos,False,1970.0,False,True,,,,,,,True,,,,,,,,,,False,True,False,True
21536,40.3422441,-3.6858806,"Rocafort, San Cristóbal, Madrid",60.0,2,1,1,0.0,5,73000,False,True,True,0,False,135,21,1,206,Piso en venta en Rocafort,"San Cristóbal, Madrid",50.0,Rocafort,True,Rocafort,,,False,,Neighborhood 135: San Cristóbal (1308.89 €/m2) - District 21: Villaverde,sale,413,,False,1217,True,HouseType 1: Pisos,False,1960.0,False,True,,True,,,,,,,,,,,,,,,False,True,False,True
21533,40.3568726,-3.7037572,"Calle de Eduardo Barreiros, Los Ángeles, Madrid",96.0,2,2,1,0.0,7,210000,False,True,True,0,True,132,21,1,209,Piso en venta en calle de Eduardo Barreiros,"Los Ángeles, Madrid",,Calle de Eduardo Barreiros,True,Calle de Eduardo Barreiros,,,False,,Neighborhood 132: Los Ángeles (1796.68 €/m2) - District 21: Villaverde,sale,948,,False,2188,True,HouseType 1: Pisos,False,2001.0,False,True,,True,True,,True,True,,True,,,True,True,,,True,0.0,,,,
21532,40.3548639,-3.684203,"Calle de Clara Schumann, Los Rosales, Madrid",71.0,2,2,1,0.0,2,198000,False,True,True,0,False,133,21,1,210,Piso en venta en calle de Clara Schumann,"Los Rosales, Madrid",60.0,Calle de Clara Schumann,True,Calle de Clara Schumann,,,False,,Neighborhood 133: Los Rosales (1827.79 €/m2) - District 21: Villaverde,sale,910,,False,2789,True,HouseType 1: Pisos,False,2001.0,False,True,,True,True,,True,,,True,,,True,,,,,,False,False,False,True
21531,40.3513,-3.6863925,"Calle Diamante, Madrid, Los Rosales, Madrid",74.0,2,1,1,0.0,1,139900,False,False,True,0,False,133,21,1,211,"Piso en venta en calle Diamante, Madrid","Los Rosales, Madrid",,"Calle Diamante, Madrid",True,"Calle Diamante, Madrid",,,False,,Neighborhood 133: Los Rosales (1827.79 €/m2) - District 21: Villaverde,sale,705,,False,1891,True,HouseType 1: Pisos,False,1966.0,False,True,,,True,,,,,,,,,,,,,,,,,
21527,40.3484649,-3.6886982,"Calle Eduardo Minguito, 13, Los Rosales, Madrid",63.0,3,1,1,0.0,0,100000,True,False,False,0,False,133,21,1,215,"Piso en venta en calle Eduardo Minguito, 13","Los Rosales, Madrid",,"Calle Eduardo Minguito, 13",False,Calle Eduardo Minguito,13,,True,,Neighborhood 133: Los Rosales (1827.79 €/m2) - District 21: Villaverde,sale,539,,False,1587,True,HouseType 1: Pisos,False,,,,,,,,,,,,,,,,,,,,,,,
21517,40.3495616,-3.6893515,"BENITA LOPEZ, Los Rosales, Madrid",95.0,4,1,1,0.0,4,138000,False,False,True,0,False,133,21,1,225,Piso en venta en BENITA LOPEZ,"Los Rosales, Madrid",,BENITA LOPEZ,True,BENITA LOPEZ,,,False,,Neighborhood 133: Los Rosales (1827.79 €/m2) - District 21: Villaverde,sale,698,,False,1453,True,HouseType 1: Pisos,False,,False,True,,,,,,True,,,,,,,,,,,False,False,False,True
21515,40.3429222,-3.675537,"Calle de la Esmaltina, 1, Butarque, Madrid",90.0,3,2,1,0.0,4,222000,False,True,True,4,True,131,21,1,227,"Piso en venta en calle de la Esmaltina, 1","Butarque, Madrid",,"Calle de la Esmaltina, 1",False,Calle de la Esmaltina,1,,False,,Neighborhood 131: Butarque (2197.8 €/m2) - District 21: Villaverde,sale,985,,False,2467,True,HouseType 1: Pisos,False,2001.0,False,True,,True,True,,True,,,True,,,True,,,,True,0.0,False,True,False,True
21513,40.35528375,-3.6946744146376806,"Calle la Dolorosa, 10, Los Ángeles, Madrid",80.0,3,1,1,0.0,3,182000,False,True,True,0,False,132,21,1,229,"Piso en venta en calle la Dolorosa, 10","Los Ángeles, Madrid",65.0,"Calle la Dolorosa, 10",False,Calle la Dolorosa,10,,False,,Neighborhood 132: Los Ángeles (1796.68 €/m2) - District 21: Villaverde,sale,857,,False,2275,True,HouseType 1: Pisos,False,1974.0,,,,True,,,,True,,,,,,,,,,,,,,
21510,40.351853,-3.6824616,"Calle Vicente Carballal, Butarque, Madrid",81.0,3,1,1,0.0,3,116100,False,False,True,1,False,131,21,1,232,Piso en venta en calle Vicente Carballal,"Butarque, Madrid",,Calle Vicente Carballal,True,Calle Vicente Carballal,,,False,,Neighborhood 131: Butarque (2197.8 €/m2) - District 21: Villaverde,sale,609,,False,1433,True,HouseType 1: Pisos,False,,,,,,,,,,,,,,,,,,,,False,False,True,True
21507,40.3451107,-3.691115,"burjasot, San Cristóbal, Madrid",70.0,3,1,1,0.0,3,99000,False,True,True,0,False,135,21,1,235,Piso en venta en burjasot,"San Cristóbal, Madrid",,burjasot,True,burjasot,,,False,,Neighborhood 135: San Cristóbal (1308.89 €/m2) - District 21: Villaverde,sale,535,,False,1414,True,HouseType 1: Pisos,False,,,,,True,,,,,,,,,,,,,,,,,,
21504,40.3505829,-3.6871966,"LEONOR GONGORA, Los Rosales, Madrid",95.0,3,1,1,0.0,2,130000,False,False,True,0,False,133,21,1,238,Piso en venta en LEONOR GONGORA,"Los Rosales, Madrid",85.0,LEONOR GONGORA,True,LEONOR GONGORA,,,False,,Neighborhood 133: Los Rosales (1827.79 €/m2) - District 21: Villaverde,sale,666,,False,1368,True,HouseType 1: Pisos,False,1985.0,False,True,,True,True,,,True,True,,,,True,,,,,,False,True,False,True
21500,40.3565045,-3.6928754,"Calle Ciudadanía, Los Rosales, Madrid",98.0,4,2,1,0.0,-1,230000,False,True,True,0,False,133,21,1,242,Piso en venta en calle Ciudadanía,"Los Rosales, Madrid",85.0,Calle Ciudadanía,True,Calle Ciudadanía,,,True,,Neighborhood 133: Los Rosales (1827.79 €/m2) - District 21: Villaverde,sale,1009,,False,2347,True,HouseType 1: Pisos,False,1977.0,False,True,,,True,,,True,,,,,,,,,,,,,,
21499,40.3516087,-3.6969212,"Calle Arechavaleta, Los Ángeles, Madrid",55.0,3,1,1,0.0,2,91000,False,False,True,0,False,132,21,1,243,Piso en venta en calle Arechavaleta,"Los Ángeles, Madrid",,Calle Arechavaleta,True,Calle Arechavaleta,,,False,,Neighborhood 132: Los Ángeles (1796.68 €/m2) - District 21: Villaverde,sale,499,,False,1655,True,HouseType 1: Pisos,False,,,,,,,,,,,,,,,,,,,,,,,
21496,40.3422441,-3.6858806,"Calle de Rocafort, San Cristóbal, Madrid",68.0,3,1,1,0.0,4,83900,False,False,True,0,False,135,21,1,246,Piso en venta en calle de Rocafort,"San Cristóbal, Madrid",,Calle de Rocafort,True,Calle de Rocafort,,,False,,Neighborhood 135: San Cristóbal (1308.89 €/m2) - District 21: Villaverde,sale,465,,False,1234,True,HouseType 1: Pisos,False,,,,,,,,,,,,,,,,,,,,,,,
21494,40.3437031,-3.6909081,"BENIFERRI, San Cristóbal, Madrid",64.0,3,1,1,0.0,1,76000,True,False,True,0,False,135,21,1,248,Piso en venta en BENIFERRI,"San Cristóbal, Madrid",,BENIFERRI,True,BENIFERRI,,,False,,Neighborhood 135: San Cristóbal (1308.89 €/m2) - District 21: Villaverde,sale,428,,False,1188,True,HouseType 1: Pisos,False,,False,True,,True,,,,,,,,,,,,,,,False,True,True,False
21493,40.35600685,-3.6938880510558985,"Paseo de Gigantes y Cabezudos, 42, Los Ángeles, Madrid",92.0,4,1,1,0.0,5,163000,False,True,True,0,False,132,21,1,249,"Piso en venta en paseo de Gigantes y Cabezudos, 42","Los Ángeles, Madrid",,"Paseo de Gigantes y Cabezudos, 42",False,Paseo de Gigantes y Cabezudos,42,,False,,Neighborhood 132: Los Ángeles (1796.68 €/m2) - District 21: Villaverde,sale,791,,False,1772,True,HouseType 1: Pisos,False,,,,,,,,,,,True,,,,,,,,,,,,
21492,40.3441954,-3.6750091,"Calle Limonita, 6, Butarque, Madrid",154.0,3,2,1,0.0,3,280000,False,True,True,0,True,131,21,1,250,"Piso en venta en calle Limonita, 6","Butarque, Madrid",,"Calle Limonita, 6",False,Calle Limonita,6,,False,,Neighborhood 131: Butarque (2197.8 €/m2) - District 21: Villaverde,sale,1148,,False,1818,True,HouseType 1: Pisos,False,,,,,True,True,,True,True,,True,,,,True,,,True,0.0,,,,
21491,40.349198,-3.6857459,"Azufre, 3, Los Rosales, Madrid",105.0,3,2,1,0.0,-1,180000,False,False,True,4,False,133,21,1,251,"Piso en venta en Azufre, 3","Los Rosales, Madrid",95.0,"Azufre, 3",False,Azufre,3,,True,,Neighborhood 133: Los Rosales (1827.79 €/m2) - District 21: Villaverde,sale,851,,False,1714,True,HouseType 1: Pisos,False,,False,True,,True,True,,,True,,True,,,,,,,,,False,False,True,False
21488,40.3474954,-3.6903199,"Calle del Estroncio, 11, Los Rosales, Madrid",53.0,3,1,1,0.0,3,114300,False,False,True,1,False,133,21,1,254,"Piso en venta en calle del Estroncio, 11","Los Rosales, Madrid",,"Calle del Estroncio, 11",False,Calle del Estroncio,11,,False,,Neighborhood 133: Los Rosales (1827.79 €/m2) - District 21: Villaverde,sale,601,,False,2157,True,HouseType 1: Pisos,,,,,,,,,,True,,,,,,,,,,,,,,
21483,40.3474954,-3.6903199,"Calle del estroncio, 11, Los Rosales, Madrid",53.0,3,1,1,0.0,3,114300,False,False,True,1,False,133,21,1,259,"Piso en venta en calle del estroncio, 11","Los Rosales, Madrid",,"Calle del estroncio, 11",False,Calle del estroncio,11,,False,,Neighborhood 133: Los Rosales (1827.79 €/m2) - District 21: Villaverde,sale,601,,False,2157,True,HouseType 1: Pisos,,,,,,,,,,,,,,,,,,,,,,,,
21478,40.3431235,-3.6855057,"Calle de Rocafort, 14 j, San Cristóbal, Madrid",30.0,1,1,1,0.0,-1,59000,False,False,True,3,False,135,21,1,264,"Piso en venta en calle de Rocafort, 14 j","San Cristóbal, Madrid",27.0,"Calle de Rocafort, 14 j",False,Calle de Rocafort,14 j,,True,,Neighborhood 135: San Cristóbal (1308.89 €/m2) - District 21: Villaverde,sale,342,,False,1967,True,HouseType 1: Pisos,False,1960.0,,,,,,,,,,,,,True,True,,,,,,,,
21477,40.33938985,-3.6785247500000047,"maricara, Butarque, Madrid",53.0,1,1,1,0.0,6,146000,False,True,True,0,True,131,21,1,265,Piso en venta en maricara,"Butarque, Madrid",,maricara,True,maricara,,,False,,Neighborhood 131: Butarque (2197.8 €/m2) - District 21: Villaverde,sale,728,,False,2755,True,HouseType 1: Pisos,False,,False,True,,,True,,True,True,,True,,,,,,,True,0.0,,,,
21472,40.3485658,-3.6847772,"Calle de Benimamet, 6, San Cristóbal, Madrid",63.0,3,1,1,0.0,4,82000,False,False,True,0,False,135,21,1,270,"Piso en venta en calle de Benimamet, 6","San Cristóbal, Madrid",58.0,"Calle de Benimamet, 6",False,Calle de Benimamet,6,,False,,Neighborhood 135: San Cristóbal (1308.89 €/m2) - District 21: Villaverde,sale,456,,False,1302,True,HouseType 1: Pisos,False,1960.0,False,True,,,,,,,,,,,,,,,,,False,False,False,True
21461,40.34316665,-3.691714807487149,"Plaza Pinazo, San Cristóbal, Madrid",83.0,3,2,1,0.0,1,111000,True,True,True,0,False,135,21,1,281,Piso en venta en plaza Pinazo,"San Cristóbal, Madrid",,Plaza Pinazo,True,Plaza Pinazo,,,False,,Neighborhood 135: San Cristóbal (1308.89 €/m2) - District 21: Villaverde,sale,587,,False,1337,True,HouseType 1: Pisos,False,,,,,,,,,,,,,,,,,,,,,,,
21454,40.3437031,-3.6909081,"Calle Beniferri, San Cristóbal, Madrid",68.0,3,1,1,0.0,2,94000,False,False,True,0,False,135,21,1,288,Piso en venta en calle Beniferri,"San Cristóbal, Madrid",60.0,Calle Beniferri,True,Calle Beniferri,,,False,,Neighborhood 135: San Cristóbal (1308.89 €/m2) - District 21: Villaverde,sale,512,,False,1382,True,HouseType 1: Pisos,False,,False,True,,,,,,,,,,,,,,,,,False,False,True,False
21451,40.3533289,-3.6910283,"Sahara, Los Rosales, Madrid",63.0,3,1,1,0.0,1,167000,False,True,True,0,False,133,21,1,291,Piso en venta en Sahara,"Los Rosales, Madrid",,Sahara,True,Sahara,,,False,,Neighborhood 133: Los Rosales (1827.79 €/m2) - District 21: Villaverde,sale,805,,False,2651,True,HouseType 1: Pisos,False,1966.0,False,True,,,,,,,,,,,,,,,,,,,,
21447,40.3597743,-3.6912572,"Generosidad, 14, Los Rosales, Madrid",125.0,3,2,1,0.0,1,210000,False,True,True,0,True,133,21,1,295,"Piso en venta en Generosidad, 14","Los Rosales, Madrid",76.0,"Generosidad, 14",False,Generosidad,14,,False,,Neighborhood 133: Los Rosales (1827.79 €/m2) - District 21: Villaverde,sale,948,,False,1680,True,HouseType 1: Pisos,False,,False,True,,,True,,,,,True,,,True,True,,,True,0.0,False,True,False,True
21445,40.3532352,-3.6899154,"Calle de Martinez Oviol, 40, Los Rosales, Madrid",75.0,3,1,1,0.0,2,131400,False,False,True,0,False,133,21,1,297,"Piso en venta en calle de Martinez Oviol, 40","Los Rosales, Madrid",,"Calle de Martinez Oviol, 40",False,Calle de Martinez Oviol,40,,False,,Neighborhood 133: Los Rosales (1827.79 €/m2) - District 21: Villaverde,sale,672,,False,1752,True,HouseType 1: Pisos,,,,,,,,,,,,,,,,,,,,,,,,
21439,40.3431235,-3.6855057,"Calle de rocafort, 51, San Cristóbal, Madrid",42.0,4,1,1,0.0,-1,95900,False,False,True,3,False,135,21,1,303,"Piso en venta en calle de rocafort, 51","San Cristóbal, Madrid",,"Calle de rocafort, 51",False,Calle de rocafort,51,,True,,Neighborhood 135: San Cristóbal (1308.89 €/m2) - District 21: Villaverde,sale,521,,False,2283,True,HouseType 1: Pisos,,,,,,,,,,,,,,,,,,,,,,,,
21437,40.3497332,-3.6941772,"Calle Ampuero, Los Ángeles, Madrid",80.0,2,1,1,0.0,3,115000,False,True,True,0,False,132,21,1,305,Piso en venta en calle Ampuero,"Los Ángeles, Madrid",74.0,Calle Ampuero,True,Calle Ampuero,,,False,,Neighborhood 132: Los Ángeles (1796.68 €/m2) - District 21: Villaverde,sale,604,,False,1438,True,HouseType 1: Pisos,False,,False,True,,,True,,,True,,True,,,,True,,,,,,,,
21434,40.3486538,-3.6846931,"Calle de Benimamet, Madrid, San Cristóbal, Madrid",60.0,2,1,1,0.0,3,95000,False,False,True,0,False,135,21,1,308,"Piso en venta en calle de Benimamet, Madrid","San Cristóbal, Madrid",53.0,"Calle de Benimamet, Madrid",True,"Calle de Benimamet, Madrid",,,False,,Neighborhood 135: San Cristóbal (1308.89 €/m2) - District 21: Villaverde,sale,517,,False,1583,True,HouseType 1: Pisos,False,,,,,True,,,,,,,,,,,,,,,,,,
21426,40.3516003,-3.6926224,"Calle de Juan José Martínez Seco, 87, Los Rosales, Madrid",70.0,2,1,1,0.0,1,202000,False,True,True,0,False,133,21,1,316,"Piso en venta en calle de Juan José Martínez Seco, 87","Los Rosales, Madrid",55.0,"Calle de Juan José Martínez Seco, 87",False,Calle de Juan José Martínez Seco,87,,False,,Neighborhood 133: Los Rosales (1827.79 €/m2) - District 21: Villaverde,sale,923,,False,2886,True,HouseType 1: Pisos,False,2009.0,,,,,,,,True,,True,,,,,,,,,,,,
21423,40.350523,-3.6877894,"Encarnación oviol, 45, Los Rosales, Madrid",50.0,2,1,1,0.0,3,105000,False,False,True,3,False,133,21,1,319,"Piso en venta en Encarnación oviol, 45","Los Rosales, Madrid",40.0,"Encarnación oviol, 45",False,Encarnación oviol,45,,False,,Neighborhood 133: Los Rosales (1827.79 €/m2) - District 21: Villaverde,sale,561,,False,2100,True,HouseType 1: Pisos,False,,,,,,,,,,,,,,,,,,,,False,False,False,True
21422,40.3475755,-3.6771178,"Calle de Berrocal, 3, Butarque, Madrid",103.0,3,2,2,0.0,7,265000,False,True,True,0,True,131,21,4,320,"Dúplex en venta en calle de Berrocal, 3","Butarque, Madrid",,"Calle de Berrocal, 3",False,Calle de Berrocal,3,,False,,Neighborhood 131: Butarque (2197.8 €/m2) - District 21: Villaverde,sale,1108,,False,2573,True,HouseType 4: Dúplex,False,,False,True,,True,True,,True,True,,,,,,True,,,True,0.0,False,False,True,False
21421,40.3478425,-3.6779511,"Calle Bario, 20, Butarque, Madrid",90.0,3,2,1,0.0,1,290000,False,True,True,0,True,131,21,1,321,"Piso en venta en calle Bario, 20","Butarque, Madrid",80.0,"Calle Bario, 20",False,Calle Bario,20,,False,,Neighborhood 131: Butarque (2197.8 €/m2) - District 21: Villaverde,sale,1174,,False,3222,True,HouseType 1: Pisos,False,,,,,True,True,,True,,,True,,,,True,,,True,0.0,False,False,True,False
21417,40.3384998,-3.6764999,"Calle Ganados del Salobral, 4, Butarque, Madrid",101.0,2,2,1,0.0,6,255000,False,True,True,0,True,131,21,1,325,"Piso en venta en calle Ganados del Salobral, 4","Butarque, Madrid",,"Calle Ganados del Salobral, 4",False,Calle Ganados del Salobral,4,,False,,Neighborhood 131: Butarque (2197.8 €/m2) - District 21: Villaverde,sale,1081,,False,2525,True,HouseType 1: Pisos,False,,,,,True,True,,True,,,True,,,,True,,,True,0.0,False,False,True,True
21412,40.3519946,-3.6804641,"Calle Potasa, Butarque, Madrid",68.0,3,1,1,0.0,2,97000,False,False,True,0,False,131,21,1,330,Piso en venta en calle Potasa,"Butarque, Madrid",,Calle Potasa,True,Calle Potasa,,,False,,Neighborhood 131: Butarque (2197.8 €/m2) - District 21: Villaverde,sale,526,,False,1426,True,HouseType 1: Pisos,,,,,,True,,,,,,,,,,,,,,,,,,
21409,40.3474954,-3.6903199,"Calle del Estroncio, 9, Los Rosales, Madrid",75.0,2,2,1,0.0,-1,195000,False,False,True,0,False,133,21,1,333,"Piso en venta en calle del Estroncio, 9","Los Rosales, Madrid",73.0,"Calle del Estroncio, 9",False,Calle del Estroncio,9,,True,,Neighborhood 133: Los Rosales (1827.79 €/m2) - District 21: Villaverde,sale,901,,False,2600,True,HouseType 1: Pisos,False,,False,True,,True,True,,,,,,,,True,,,,,,False,False,False,True
21402,40.34920345,-3.6999041,"Paseo Talleres, 4, Los Ángeles, Madrid",68.0,2,1,1,0.0,4,125000,False,False,True,0,False,132,21,1,340,"Piso en venta en paseo Talleres, 4","Los Ángeles, Madrid",57.0,"Paseo Talleres, 4",False,Paseo Talleres,4,,False,,Neighborhood 132: Los Ángeles (1796.68 €/m2) - District 21: Villaverde,sale,646,,False,1838,True,HouseType 1: Pisos,False,,False,True,,True,True,,,True,,,,,,True,,,,,False,False,True,False
21400,40.3431235,-3.6855057,"Calle de Rocafort, 51, San Cristóbal, Madrid",42.0,4,1,1,0.0,2,95900,False,False,True,3,False,135,21,1,342,"Piso en venta en calle de Rocafort, 51","San Cristóbal, Madrid",,"Calle de Rocafort, 51",False,Calle de Rocafort,51,,,,Neighborhood 135: San Cristóbal (1308.89 €/m2) - District 21: Villaverde,sale,521,,False,2283,True,HouseType 1: Pisos,,,,,,,,,,True,,,,,,,,,,,,,,
21399,40.3495092,-3.7009946,"Calle Litos, Los Ángeles, Madrid",54.0,3,1,1,0.0,-1,71000,True,False,True,1,False,132,21,1,343,Piso en venta en calle Litos,"Los Ángeles, Madrid",,Calle Litos,True,Calle Litos,,,True,,Neighborhood 132: Los Ángeles (1796.68 €/m2) - District 21: Villaverde,sale,403,,False,1315,True,HouseType 1: Pisos,False,,,,,,,,,,,,,,,,,,,,,,,
21397,40.35354395,-3.695485959174469,"Calle de la Alegría de la Huerta, 24, Los Ángeles, Madrid",100.0,4,1,1,0.0,1,165000,False,True,True,7,False,132,21,1,345,"Piso en venta en calle de la Alegría de la Huerta, 24","Los Ángeles, Madrid",,"Calle de la Alegría de la Huerta, 24",False,Calle de la Alegría de la Huerta,24,,False,,Neighborhood 132: Los Ángeles (1796.68 €/m2) - District 21: Villaverde,sale,798,,False,1650,True,HouseType 1: Pisos,False,,,,,,True,,,True,,,,,,True,,,,,False,True,False,False
21396,40.3504996,-3.6985953,"Travesía Arechavaleta, Los Ángeles, Madrid",125.0,4,2,1,0.0,0,173000,False,True,True,0,False,132,21,1,346,Piso en venta en travesía Arechavaleta,"Los Ángeles, Madrid",116.0,Travesía Arechavaleta,True,Travesía Arechavaleta,,,True,,Neighborhood 132: Los Ángeles (1796.68 €/m2) - District 21: Villaverde,sale,827,,False,1384,True,HouseType 1: Pisos,False,,True,False,,,True,,,,,,,,,,,,,,,,,
21388,40.3422441,-3.6858806,"rocafort, San Cristóbal, Madrid",69.0,4,1,1,0.0,3,85900,False,False,True,0,False,135,21,1,354,Piso en venta en rocafort,"San Cristóbal, Madrid",67.0,rocafort,True,rocafort,,,False,,Neighborhood 135: San Cristóbal (1308.89 €/m2) - District 21: Villaverde,sale,475,,False,1245,True,HouseType 1: Pisos,False,,,,,,True,,,True,,,,,,,,,,,,,,
21386,40.3431235,-3.6855057,"Calle de Rocafort, 17, San Cristóbal, Madrid",70.0,3,1,1,0.0,2,142500,False,False,False,0,False,135,21,1,356,"Piso en venta en calle de Rocafort, 17","San Cristóbal, Madrid",,"Calle de Rocafort, 17",False,Calle de Rocafort,17,,False,,Neighborhood 135: San Cristóbal (1308.89 €/m2) - District 21: Villaverde,sale,715,,False,2036,True,HouseType 1: Pisos,False,,,,,,,,,,,,,,,,,,,,,,,
21381,40.3407374,-3.685635,"Calle de Paterna, 48, San Cristóbal, Madrid",76.0,3,1,1,0.0,2,110000,False,True,True,1,False,135,21,1,361,"Piso en venta en calle de Paterna, 48","San Cristóbal, Madrid",70.0,"Calle de Paterna, 48",False,Calle de Paterna,48,,False,,Neighborhood 135: San Cristóbal (1308.89 €/m2) - District 21: Villaverde,sale,583,,False,1447,True,HouseType 1: Pisos,False,,,,,,,,,True,,,,,,True,,,,,,,,
21378,40.3441092,-3.6911854,"Plaza Pinazo, 27, San Cristóbal, Madrid",70.0,3,1,1,0.0,1,85000,True,False,True,0,False,135,21,1,364,"Piso en venta en plaza Pinazo, 27","San Cristóbal, Madrid",66.0,"Plaza Pinazo, 27",False,Plaza Pinazo,27,,False,,Neighborhood 135: San Cristóbal (1308.89 €/m2) - District 21: Villaverde,sale,471,,False,1214,True,HouseType 1: Pisos,False,,,,,,True,,,True,,,,,,,,,,,,,,
21376,40.3608361,-3.6943657,"Calle Pan y Toros, 3, Los Ángeles, Madrid",96.0,4,2,1,0.0,7,170000,True,True,True,0,False,132,21,1,366,"Piso en venta en calle Pan y Toros, 3","Los Ángeles, Madrid",,"Calle Pan y Toros, 3",False,Calle Pan y Toros,3,,False,,Neighborhood 132: Los Ángeles (1796.68 €/m2) - District 21: Villaverde,sale,816,,False,1771,True,HouseType 1: Pisos,False,,True,False,,True,True,,,True,,,,,,,,,,,,,,
21375,40.3523635,-3.6814088,"Calle Tántalo, 10, Butarque, Madrid",50.0,1,1,1,0.0,2,125000,False,True,True,0,False,131,21,1,367,"Piso en venta en calle Tántalo, 10","Butarque, Madrid",,"Calle Tántalo, 10",False,Calle Tántalo,10,,False,,Neighborhood 131: Butarque (2197.8 €/m2) - District 21: Villaverde,sale,646,,False,2500,True,HouseType 1: Pisos,False,,,,,,,,,,,,,,,,,,,,,,,
21374,40.3544635,-3.6875942,"Calle Selma Lagerloff, 15, Los Rosales, Madrid",85.0,3,2,1,0.0,1,230000,False,True,True,0,True,133,21,1,368,"Piso en venta en calle Selma Lagerloff, 15","Los Rosales, Madrid",,"Calle Selma Lagerloff, 15",False,Calle Selma Lagerloff,15,,False,,Neighborhood 133: Los Rosales (1827.79 €/m2) - District 21: Villaverde,sale,1009,,False,2706,True,HouseType 1: Pisos,False,,,,,,,,True,True,,,,,,True,,,True,0.0,,,,
21373,40.3409889,-3.6748546,"Calle Berrocal, 10, Butarque, Madrid",90.0,3,2,1,0.0,5,300000,False,True,True,0,True,131,21,1,369,"Piso en venta en calle Berrocal, 10","Butarque, Madrid",,"Calle Berrocal, 10",False,Calle Berrocal,10,,False,,Neighborhood 131: Butarque (2197.8 €/m2) - District 21: Villaverde,sale,1200,,False,3333,True,HouseType 1: Pisos,False,,,,,,,,True,,,True,,,,True,,,True,0.0,,,,
21370,40.3445124,-3.6894412,"Calle de Godella, 227, San Cristóbal, Madrid",60.0,3,1,1,0.0,4,140000,False,False,True,0,False,135,21,1,372,"Piso en venta en calle de Godella, 227","San Cristóbal, Madrid",,"Calle de Godella, 227",False,Calle de Godella,227,,False,,Neighborhood 135: San Cristóbal (1308.89 €/m2) - District 21: Villaverde,sale,705,,False,2333,True,HouseType 1: Pisos,False,,,,,,,,,,,,,,,,,,,,,,,
21369,40.35008175,-3.69621952875,"Calle Pimienta, 4, Los Ángeles, Madrid",105.0,3,2,1,0.0,2,135000,False,False,True,0,False,132,21,1,373,"Piso en venta en calle Pimienta, 4","Los Ángeles, Madrid",90.0,"Calle Pimienta, 4",False,Calle Pimienta,4,,False,,Neighborhood 132: Los Ángeles (1796.68 €/m2) - District 21: Villaverde,sale,686,,False,1286,True,HouseType 1: Pisos,False,,,,,,True,,,,,True,,,,True,,,,,False,False,True,False
21368,40.3412224,-3.6758888,"Calle de Berrocal, 72, Butarque, Madrid",140.0,3,3,2,0.0,4,340000,True,True,True,7,True,131,21,4,374,"Dúplex en venta en calle de Berrocal, 72","Butarque, Madrid",130.0,"Calle de Berrocal, 72",False,Calle de Berrocal,72,,False,,Neighborhood 131: Butarque (2197.8 €/m2) - District 21: Villaverde,sale,1299,,False,2429,True,HouseType 4: Dúplex,False,2003.0,False,True,,True,True,,True,True,,True,,,True,True,,,True,0.0,True,False,True,False
21366,40.3445124,-3.6894412,"Calle de Godella, 219, San Cristóbal, Madrid",60.0,3,1,1,0.0,4,145000,False,False,True,0,False,135,21,1,376,"Piso en venta en calle de Godella, 219","San Cristóbal, Madrid",,"Calle de Godella, 219",False,Calle de Godella,219,,False,,Neighborhood 135: San Cristóbal (1308.89 €/m2) - District 21: Villaverde,sale,725,,False,2417,True,HouseType 1: Pisos,False,,,,,,,,,,,,,,,,,,,,,,,
21365,40.349198,-3.6857459,"Calle Azufre, 3, Los Rosales, Madrid",62.0,2,1,1,0.0,2,142450,True,False,True,0,False,133,21,1,377,"Piso en venta en calle Azufre, 3","Los Rosales, Madrid",,"Calle Azufre, 3",False,Calle Azufre,3,,False,,Neighborhood 133: Los Rosales (1827.79 €/m2) - District 21: Villaverde,sale,715,,False,2298,True,HouseType 1: Pisos,False,,,,,,True,,,,,,,,,,,,,,False,False,True,False
21363,40.359687050000005,-3.694930000503103,"Calle Pan y Toros, 10, Los Ángeles, Madrid",81.0,3,1,1,0.0,3,160000,False,True,True,6,False,132,21,1,379,"Piso en venta en calle Pan y Toros, 10","Los Ángeles, Madrid",,"Calle Pan y Toros, 10",False,Calle Pan y Toros,10,,False,,Neighborhood 132: Los Ángeles (1796.68 €/m2) - District 21: Villaverde,sale,780,,False,1975,True,HouseType 1: Pisos,False,,,,,True,True,,,True,,,,,,,,,,,False,True,False,True
21362,40.3516003,-3.6926224,"Calle de Juan José Martínez Seco, 11, Los Rosales, Madrid",75.0,3,1,1,0.0,3,180000,False,False,True,0,True,133,21,1,380,"Piso en venta en calle de Juan José Martínez Seco, 11","Los Rosales, Madrid",70.0,"Calle de Juan José Martínez Seco, 11",False,Calle de Juan José Martínez Seco,11,,False,,Neighborhood 133: Los Rosales (1827.79 €/m2) - District 21: Villaverde,sale,851,,False,2400,True,HouseType 1: Pisos,False,,,,,True,True,,,True,,True,,,,,,,True,0.0,True,False,True,False
21360,40.3475755,-3.6771178,"Calle Berrocal, 3, Butarque, Madrid",95.0,2,2,1,0.0,3,250000,False,True,True,0,True,131,21,1,382,"Piso en venta en calle Berrocal, 3","Butarque, Madrid",,"Calle Berrocal, 3",False,Calle Berrocal,3,,False,,Neighborhood 131: Butarque (2197.8 €/m2) - District 21: Villaverde,sale,1067,,False,2632,True,HouseType 1: Pisos,False,,False,True,,True,True,,True,,,,,,True,True,,,True,0.0,,,,
21351,40.3409889,-3.6748546,"Calle de Berrocal, 64, Butarque, Madrid",115.0,3,3,2,0.0,3,245000,False,True,True,0,True,131,21,4,391,"Dúplex en venta en calle de Berrocal, 64","Butarque, Madrid",,"Calle de Berrocal, 64",False,Calle de Berrocal,64,,False,,Neighborhood 131: Butarque (2197.8 €/m2) - District 21: Villaverde,sale,1052,,False,2130,True,HouseType 4: Dúplex,False,,,,,,,,,True,,True,,,,,,,True,0.0,,,,
21349,40.3407374,-3.685635,"Calle de Paterna, 17, San Cristóbal, Madrid",75.0,3,1,1,0.0,4,155000,False,True,True,0,False,135,21,1,393,"Piso en venta en calle de Paterna, 17","San Cristóbal, Madrid",65.0,"Calle de Paterna, 17",False,Calle de Paterna,17,,False,,Neighborhood 135: San Cristóbal (1308.89 €/m2) - District 21: Villaverde,sale,762,,False,2067,True,HouseType 1: Pisos,False,,False,True,,,True,,,,,,,,True,,,,,,False,False,True,False
21348,40.351006,-3.697818865293204,"Travesía Arechavaleta, 2, Los Ángeles, Madrid",116.0,4,2,1,0.0,0,170000,True,True,True,0,False,132,21,1,394,"Piso en venta en travesía Arechavaleta, 2","Los Ángeles, Madrid",106.0,"Travesía Arechavaleta, 2",False,Travesía Arechavaleta,2,,True,,Neighborhood 132: Los Ángeles (1796.68 €/m2) - District 21: Villaverde,sale,816,,False,1466,True,HouseType 1: Pisos,False,1978.0,True,False,,,True,,,True,True,,,,True,True,,,,,,,,
21347,40.3548912,-3.6811226,"Calle Uranio, 9, Butarque, Madrid",48.0,2,1,1,0.0,4,120000,False,True,True,4,False,131,21,1,395,"Piso en venta en calle Uranio, 9","Butarque, Madrid",,"Calle Uranio, 9",False,Calle Uranio,9,,False,,Neighborhood 131: Butarque (2197.8 €/m2) - District 21: Villaverde,sale,625,,False,2500,True,HouseType 1: Pisos,False,2009.0,True,False,,True,True,,,,,True,,,True,,,,,,False,False,True,False
21346,40.3488043,-3.6853658,"Calle Turba, 1, Los Rosales, Madrid",80.0,3,1,1,0.0,-1,125000,True,False,True,0,False,133,21,1,396,"Piso en venta en calle Turba, 1","Los Rosales, Madrid",,"Calle Turba, 1",False,Calle Turba,1,,True,,Neighborhood 133: Los Rosales (1827.79 €/m2) - District 21: Villaverde,sale,646,,False,1562,True,HouseType 1: Pisos,False,,,,,,,,,True,,,,,,,,,,,False,False,True,False
21345,40.3531696,-3.6831755,"Calle Eduardo Maristany, 1, Butarque, Madrid",81.0,3,1,1,0.0,2,139500,False,False,True,7,False,131,21,1,397,"Piso en venta en calle Eduardo Maristany, 1","Butarque, Madrid",72.0,"Calle Eduardo Maristany, 1",False,Calle Eduardo Maristany,1,,False,,Neighborhood 131: Butarque (2197.8 €/m2) - District 21: Villaverde,sale,704,,False,1722,True,HouseType 1: Pisos,False,,,,,,True,,,,True,,,,,,,,,,,,,
21344,40.3595383,-3.6942498,"Pan y Toros, 17, Los Ángeles, Madrid",95.0,4,2,1,0.0,7,198000,True,True,True,0,False,132,21,1,398,"Piso en venta en Pan y Toros, 17","Los Ángeles, Madrid",,"Pan y Toros, 17",False,Pan y Toros,17,,False,,Neighborhood 132: Los Ángeles (1796.68 €/m2) - District 21: Villaverde,sale,910,,False,2084,True,HouseType 1: Pisos,False,,True,False,,,,,,True,,,,,,,,,,,,,,
21343,40.3431235,-3.6855057,"Calle de Rocafort, 25, San Cristóbal, Madrid",60.0,4,1,1,0.0,5,75000,True,False,True,3,False,135,21,1,399,"Piso en venta en calle de Rocafort, 25","San Cristóbal, Madrid",50.0,"Calle de Rocafort, 25",False,Calle de Rocafort,25,,False,,Neighborhood 135: San Cristóbal (1308.89 €/m2) - District 21: Villaverde,sale,423,,False,1250,True,HouseType 1: Pisos,False,1960.0,,,,,True,,,,,,,,,,,,,,True,False,True,False
21339,40.3495616,-3.6893515,"Calle de Benita López, 24, Los Rosales, Madrid",166.0,3,1,3,166.0,-5,300000,True,False,True,0,False,133,21,2,403," Casa o chalet independiente en venta en calle de Benita López, 24","Los Rosales, Madrid",,"Calle de Benita López, 24",False,Calle de Benita López,24,,,,Neighborhood 133: Los Rosales (1827.79 €/m2) - District 21: Villaverde,sale,1200,,False,1807,True,HouseType 2: Casa o chalet,False,,,,,,,,,,,,,,,,,,,,,,,
21337,40.359715050000005,-3.696647901950831,"Avenida de la Verbena de la Paloma, 10, Los Ángeles, Madrid",94.0,4,1,1,0.0,1,190000,False,True,True,0,False,132,21,1,405,"Piso en venta en avenida de la Verbena de la Paloma, 10","Los Ángeles, Madrid",,"Avenida de la Verbena de la Paloma, 10",False,Avenida de la Verbena de la Paloma,10,,False,,Neighborhood 132: Los Ángeles (1796.68 €/m2) - District 21: Villaverde,sale,884,,False,2021,True,HouseType 1: Pisos,False,,,,,,,,,,,True,,,,,,,,,False,False,True,True
21336,40.3607602,-3.6960666041522816,"Calle Manojo de Rosas, 19, Los Ángeles, Madrid",80.0,3,1,1,0.0,1,150000,False,False,True,0,False,132,21,1,406,"Piso en venta en calle Manojo de Rosas, 19","Los Ángeles, Madrid",75.0,"Calle Manojo de Rosas, 19",False,Calle Manojo de Rosas,19,,False,,Neighborhood 132: Los Ángeles (1796.68 €/m2) - District 21: Villaverde,sale,744,,False,1875,True,HouseType 1: Pisos,False,,,,,True,True,,,True,,,,,,,,,,,,,,
21335,40.3526057,-3.6854443,"Calle Villarramiel, 5, Los Rosales, Madrid",65.0,2,1,1,0.0,-1,110000,False,False,True,0,False,133,21,1,407,"Piso en venta en calle Villarramiel, 5","Los Rosales, Madrid",50.0,"Calle Villarramiel, 5",False,Calle Villarramiel,5,,True,,Neighborhood 133: Los Rosales (1827.79 €/m2) - District 21: Villaverde,sale,583,,False,1692,True,HouseType 1: Pisos,False,,,,,True,,,,,,,,,,,,,,,,,,
21322,40.3437031,-3.6909081,"beniferri, San Cristóbal, Madrid",60.0,3,1,1,0.0,1,105000,False,False,True,0,False,135,21,1,420,Piso en venta en beniferri,"San Cristóbal, Madrid",58.0,beniferri,True,beniferri,,,False,,Neighborhood 135: San Cristóbal (1308.89 €/m2) - District 21: Villaverde,sale,561,,False,1750,True,HouseType 1: Pisos,False,,False,True,,,True,,,,,True,,,,,,,,,,,,
21321,40.3492523,-3.6991973,"Calle alcocer, Los Ángeles, Madrid",61.0,3,1,1,0.0,1,108000,False,True,True,0,False,132,21,1,421,Piso en venta en calle alcocer,"Los Ángeles, Madrid",,Calle alcocer,True,Calle alcocer,,,False,,Neighborhood 132: Los Ángeles (1796.68 €/m2) - District 21: Villaverde,sale,574,,False,1770,True,HouseType 1: Pisos,False,,,,,,,,,,,,,,True,,,,,,,,,
21314,40.3409889,-3.6748546,"Calle de Berrocal, 12, Butarque, Madrid",147.0,4,2,2,0.0,4,340000,False,True,True,7,True,131,21,4,428,"Dúplex en venta en calle de Berrocal, 12","Butarque, Madrid",,"Calle de Berrocal, 12",False,Calle de Berrocal,12,,False,,Neighborhood 131: Butarque (2197.8 €/m2) - District 21: Villaverde,sale,1299,,False,2313,True,HouseType 4: Dúplex,False,2003.0,False,True,,True,True,,True,True,,True,,,True,True,,,True,0.0,False,True,False,False
21312,40.3565934,-3.6992999500000017,"huesped del sevillano, 21, Los Ángeles, Madrid",108.0,4,2,1,0.0,2,156000,False,False,True,0,False,132,21,1,430,"Piso en venta en huesped del sevillano, 21","Los Ángeles, Madrid",,"huesped del sevillano, 21",False,huesped del sevillano,21,,False,,Neighborhood 132: Los Ángeles (1796.68 €/m2) - District 21: Villaverde,sale,766,,False,1444,True,HouseType 1: Pisos,False,,False,True,,,,,,,,True,,,,,,,,,,,,
21310,40.3445124,-3.6894412,"Calle de Godella, 100, San Cristóbal, Madrid",90.0,3,2,1,0.0,5,139000,False,True,True,0,False,135,21,1,432,"Piso en venta en calle de Godella, 100","San Cristóbal, Madrid",,"Calle de Godella, 100",False,Calle de Godella,100,,False,,Neighborhood 135: San Cristóbal (1308.89 €/m2) - District 21: Villaverde,sale,702,,False,1544,True,HouseType 1: Pisos,False,2008.0,False,True,,,True,,,,,True,,,True,,,,,,,,,
21305,40.3485658,-3.6847772,"Calle de Benimamet, 68, San Cristóbal, Madrid",70.0,3,1,1,0.0,4,95000,False,False,True,6,False,135,21,1,437,"Piso en venta en calle de Benimamet, 68","San Cristóbal, Madrid",65.0,"Calle de Benimamet, 68",False,Calle de Benimamet,68,,False,,Neighborhood 135: San Cristóbal (1308.89 €/m2) - District 21: Villaverde,sale,517,,False,1357,True,HouseType 1: Pisos,False,,,,,True,True,,,,,,,,,,,,,,True,False,False,False
21304,40.3431235,-3.6855057,"Calle de Rocafort, 16, San Cristóbal, Madrid",71.0,3,1,1,0.0,5,100000,False,True,True,6,False,135,21,1,438,"Piso en venta en calle de Rocafort, 16","San Cristóbal, Madrid",62.0,"Calle de Rocafort, 16",False,Calle de Rocafort,16,,False,,Neighborhood 135: San Cristóbal (1308.89 €/m2) - District 21: Villaverde,sale,539,,False,1408,True,HouseType 1: Pisos,False,,False,True,,,,,,,,,,,,,,,,,False,True,False,False
21303,40.3445124,-3.6894412,"Calle de Godella, 160, San Cristóbal, Madrid",70.0,3,1,1,0.0,5,97000,False,False,True,0,False,135,21,1,439,"Piso en venta en calle de Godella, 160","San Cristóbal, Madrid",65.0,"Calle de Godella, 160",False,Calle de Godella,160,,False,,Neighborhood 135: San Cristóbal (1308.89 €/m2) - District 21: Villaverde,sale,526,,False,1386,True,HouseType 1: Pisos,False,,False,True,,True,,,,,,,,,,,,,,,False,False,True,False
21302,40.3588758,-3.6851757,"Calle de la Unanimidad, 51, Los Rosales, Madrid",100.0,3,2,1,0.0,4,179000,False,True,True,0,False,133,21,1,440,"Piso en venta en calle de la Unanimidad, 51","Los Rosales, Madrid",,"Calle de la Unanimidad, 51",False,Calle de la Unanimidad,51,,False,,Neighborhood 133: Los Rosales (1827.79 €/m2) - District 21: Villaverde,sale,847,,False,1790,True,HouseType 1: Pisos,False,,,,,True,,,,True,,,,,,,,,,,,,,
21299,40.352946,-3.6997151734920153,"Calle Anoeta, 26, Los Ángeles, Madrid",105.0,3,2,1,0.0,5,260000,False,True,True,0,False,132,21,1,443,"Piso en venta en calle Anoeta, 26","Los Ángeles, Madrid",,"Calle Anoeta, 26",False,Calle Anoeta,26,,False,,Neighborhood 132: Los Ángeles (1796.68 €/m2) - District 21: Villaverde,sale,1094,,False,2476,True,HouseType 1: Pisos,False,,,,,,True,,,True,,,,,,True,,,,,False,False,False,True
21297,40.3548912,-3.6811226,"Calle Uranio, 20, Butarque, Madrid",80.0,2,2,1,0.0,1,250000,False,True,True,0,True,131,21,1,445,"Piso en venta en calle Uranio, 20","Butarque, Madrid",62.0,"Calle Uranio, 20",False,Calle Uranio,20,,False,,Neighborhood 131: Butarque (2197.8 €/m2) - District 21: Villaverde,sale,1067,,False,3125,True,HouseType 1: Pisos,False,,,,,True,True,,True,,,True,,,,True,,,True,0.0,,,,
21287,40.3530902,-3.6987037,"Calle de la del Manojo de Rosas, 49 -47, Los Ángeles, Madrid",76.0,3,1,1,0.0,2,108000,False,True,True,2,False,132,21,1,455,"Piso en venta en calle de la del Manojo de Rosas, 49 -47","Los Ángeles, Madrid",,"Calle de la del Manojo de Rosas, 49 -47",False,Calle de la del Manojo de Rosas,49 -47,,,,Neighborhood 132: Los Ángeles (1796.68 €/m2) - District 21: Villaverde,sale,574,,False,1421,True,HouseType 1: Pisos,,,,,,,,,,,,,,,,,,,,,,,,
21283,40.3588125,-3.6851713,"Calle de la Unanimidad, 55, Los Rosales, Madrid",70.0,2,2,1,0.0,-1,196000,False,False,True,3,True,133,21,1,459,"Piso en venta en calle de la Unanimidad, 55","Los Rosales, Madrid",,"Calle de la Unanimidad, 55",False,Calle de la Unanimidad,55,,True,,Neighborhood 133: Los Rosales (1827.79 €/m2) - District 21: Villaverde,sale,904,,False,2800,True,HouseType 1: Pisos,False,,False,True,,True,True,,,,,,,,,True,,,True,0.0,False,False,False,True
21281,40.3591534,-3.6847879,"Calle de la unanimidad, 45, Los Rosales, Madrid",100.0,3,2,1,0.0,4,210000,False,True,True,0,False,133,21,1,461,"Piso en venta en calle de la unanimidad, 45","Los Rosales, Madrid",80.0,"Calle de la unanimidad, 45",False,Calle de la unanimidad,45,,False,,Neighborhood 133: Los Rosales (1827.79 €/m2) - District 21: Villaverde,sale,948,,False,2100,True,HouseType 1: Pisos,False,,False,True,,True,True,,,True,,,,,,True,,,,,,,,
21280,40.3584393,-3.6861877,"Calle del Consenso, 6, Los Rosales, Madrid",90.0,4,2,1,0.0,-1,230000,False,True,True,2,True,133,21,1,462,"Piso en venta en calle del Consenso, 6","Los Rosales, Madrid",,"Calle del Consenso, 6",False,Calle del Consenso,6,,True,,Neighborhood 133: Los Rosales (1827.79 €/m2) - District 21: Villaverde,sale,1009,,False,2556,True,HouseType 1: Pisos,False,,,,,True,True,,,,,True,,,,True,,,True,0.0,,,,
21278,40.345152,-3.6907571,"Calle Burjasot, 6, San Cristóbal, Madrid",68.0,2,1,1,0.0,8,120000,False,True,True,0,False,135,21,1,464,"Piso en venta en calle Burjasot, 6","San Cristóbal, Madrid",65.0,"Calle Burjasot, 6",False,Calle Burjasot,6,,False,,Neighborhood 135: San Cristóbal (1308.89 €/m2) - District 21: Villaverde,sale,625,,False,1765,True,HouseType 1: Pisos,False,,False,True,,,True,,,,,,,,True,,,,,,False,False,True,False
21276,40.3568962,-3.695436849999999,"Avenida de la Verbena de la Paloma, 41, Los Ángeles, Madrid",55.0,2,1,1,0.0,-1,135000,False,True,True,0,False,132,21,1,466,"Piso en venta en avenida de la Verbena de la Paloma, 41","Los Ángeles, Madrid",,"Avenida de la Verbena de la Paloma, 41",False,Avenida de la Verbena de la Paloma,41,,True,,Neighborhood 132: Los Ángeles (1796.68 €/m2) - District 21: Villaverde,sale,686,,False,2455,True,HouseType 1: Pisos,False,,False,True,,True,,,,,,,,,,,,,,,,,,
21274,40.2841457,-3.7948078,"Camino Leganés, 25, San Andrés, Madrid",123.0,4,2,1,0.0,3,220000,False,False,True,2,True,134,21,1,468,"Piso en venta en camino Leganés, 25","San Andrés, Madrid",,"Camino Leganés, 25",False,Camino Leganés,25,,False,,Neighborhood 134: San Andrés (1617.18 €/m2) - District 21: Villaverde,sale,979,,False,1789,True,HouseType 1: Pisos,False,1981.0,False,True,,,True,,,True,,,,,,,,,True,0.0,True,False,True,False
21273,40.3550013,-3.685226,"Clara Schumann s/n, Los Rosales, Madrid",74.0,2,2,1,0.0,2,198000,False,True,True,4,False,133,21,1,469,Piso en venta en Clara Schumann s/n,"Los Rosales, Madrid",,Clara Schumann s/n,False,,,,False,,Neighborhood 133: Los Rosales (1827.79 €/m2) - District 21: Villaverde,sale,910,,False,2676,True,HouseType 1: Pisos,False,,False,True,,True,True,,True,,,True,,,True,,,,,,False,False,False,True
21272,40.35698875,-3.6962087814514426,"Avenida de la Verbena de la Paloma, 26, Los Ángeles, Madrid",64.0,2,1,1,0.0,2,150000,False,False,True,0,False,132,21,1,470,"Piso en venta en avenida de la Verbena de la Paloma, 26","Los Ángeles, Madrid",,"Avenida de la Verbena de la Paloma, 26",False,Avenida de la Verbena de la Paloma,26,,False,,Neighborhood 132: Los Ángeles (1796.68 €/m2) - District 21: Villaverde,sale,744,,False,2344,True,HouseType 1: Pisos,False,,False,True,,True,,,,,,,,,,True,,,,,False,False,True,True
21270,40.3570991,-3.6841334,"Calle Augustóbriga, 9, Los Rosales, Madrid",113.0,3,2,1,0.0,1,359900,False,True,True,4,True,133,21,1,472,"Piso en venta en calle Augustóbriga, 9","Los Rosales, Madrid",,"Calle Augustóbriga, 9",False,Calle Augustóbriga,9,,False,,Neighborhood 133: Los Rosales (1827.79 €/m2) - District 21: Villaverde,sale,1346,,False,3185,True,HouseType 1: Pisos,False,2010.0,False,True,,True,True,,True,,,True,,,True,True,,,True,0.0,False,False,True,True
21252,40.3425833,-3.6883594,"Calle de Godella, San Cristóbal, Madrid",62.0,2,1,1,0.0,2,93000,False,False,True,3,False,135,21,1,490,Piso en venta en calle de Godella,"San Cristóbal, Madrid",,Calle de Godella,True,Calle de Godella,,,,,Neighborhood 135: San Cristóbal (1308.89 €/m2) - District 21: Villaverde,sale,508,,False,1500,True,HouseType 1: Pisos,False,,,,,,,,,,,,,,,,,,,,,,,
21251,40.3421714,-3.6924253,"Paseo de María Droc, 18, San Cristóbal, Madrid",83.0,3,2,1,0.0,1,99900,False,True,True,3,False,135,21,1,491,"Piso en venta en paseo de María Droc, 18","San Cristóbal, Madrid",,"Paseo de María Droc, 18",False,Paseo de María Droc,18,,False,,Neighborhood 135: San Cristóbal (1308.89 €/m2) - District 21: Villaverde,sale,539,,False,1204,True,HouseType 1: Pisos,,,,,,,,,,True,,,,,,,,,,,,,,
21250,40.351853,-3.6824616,"Calle Vicente Carballal, 9, Butarque, Madrid",81.0,3,1,1,0.0,3,116100,False,False,True,1,False,131,21,1,492,"Piso en venta en calle Vicente Carballal, 9","Butarque, Madrid",,"Calle Vicente Carballal, 9",False,Calle Vicente Carballal,9,,False,,Neighborhood 131: Butarque (2197.8 €/m2) - District 21: Villaverde,sale,609,,False,1433,True,HouseType 1: Pisos,,,,,,True,,,,True,,,,,,,,,,,,,,
21247,40.3507186,-3.6921207,"JOSÉ DEL PINO, Los Rosales, Madrid",83.0,3,1,1,0.0,1,116675,False,False,True,0,False,133,21,1,495,Piso en venta en JOSÉ DEL PINO,"Los Rosales, Madrid",,JOSÉ DEL PINO,True,JOSÉ DEL PINO,,,False,,Neighborhood 133: Los Rosales (1827.79 €/m2) - District 21: Villaverde,sale,611,,False,1406,True,HouseType 1: Pisos,False,1965.0,,,,,,,,,,,,,,,,,,,,,,
21246,40.3412012,-3.6848013,"Paterna, San Cristóbal, Madrid",76.0,2,1,1,0.0,2,109491,False,True,True,0,False,135,21,1,496,Piso en venta en Paterna,"San Cristóbal, Madrid",,Paterna,True,Paterna,,,False,,Neighborhood 135: San Cristóbal (1308.89 €/m2) - District 21: Villaverde,sale,581,,False,1441,True,HouseType 1: Pisos,False,1968.0,,,,,,,,,,,,,,,,,,,,,,
21244,40.3560432,-3.6820183,"Calle Euskalduna, 1, Butarque, Madrid",80.0,2,2,1,0.0,1,250000,False,True,True,7,True,131,21,1,498,"Piso en venta en calle Euskalduna, 1","Butarque, Madrid",70.0,"Calle Euskalduna, 1",False,Calle Euskalduna,1,,False,,Neighborhood 131: Butarque (2197.8 €/m2) - District 21: Villaverde,sale,1067,,False,3125,True,HouseType 1: Pisos,False,2005.0,False,True,,True,True,,,True,True,True,,,True,True,,,True,0.0,True,True,True,True
21241,40.35236685,-3.700761727021405,"Calle de Anoeta, 42, Los Ángeles, Madrid",90.0,3,1,1,0.0,1,208000,False,True,True,0,False,132,21,1,501,"Piso en venta en calle de Anoeta, 42","Los Ángeles, Madrid",,"Calle de Anoeta, 42",False,Calle de Anoeta,42,,False,,Neighborhood 132: Los Ángeles (1796.68 €/m2) - District 21: Villaverde,sale,942,,False,2311,True,HouseType 1: Pisos,False,,False,True,,True,,,,True,,,,,,,,,,,,,,
21234,40.349198,-3.6857459,"azufre, Los Rosales, Madrid",105.0,3,2,1,0.0,-1,182260,False,False,True,0,True,133,21,1,508,Piso en venta en azufre,"Los Rosales, Madrid",,azufre,True,azufre,,,True,,Neighborhood 133: Los Rosales (1827.79 €/m2) - District 21: Villaverde,sale,858,,False,1736,True,HouseType 1: Pisos,False,1983.0,False,True,,True,True,,,True,True,True,,,,True,,,False,14210.0,False,True,False,False
21233,40.3528454,-3.6894826,"Calle San Macario, 8, Los Rosales, Madrid",85.0,3,1,1,0.0,2,159000,False,False,True,0,True,133,21,1,509,"Piso en venta en calle San Macario, 8","Los Rosales, Madrid",80.0,"Calle San Macario, 8",False,Calle San Macario,8,,False,,Neighborhood 133: Los Rosales (1827.79 €/m2) - District 21: Villaverde,sale,777,,False,1871,True,HouseType 1: Pisos,False,,False,True,,,,,,True,,True,,,,,,,True,0.0,True,False,True,False
21230,40.2825142,-3.7878868,"Calle de Getafe, San Andrés, Madrid",60.0,2,1,1,0.0,2,99000,False,False,True,0,False,134,21,1,512,Piso en venta en calle de Getafe,"San Andrés, Madrid",,Calle de Getafe,True,Calle de Getafe,,,False,,Neighborhood 134: San Andrés (1617.18 €/m2) - District 21: Villaverde,sale,535,,False,1650,True,HouseType 1: Pisos,,1953.0,,,,,,,,,,,,,,,,,,,,,,
21223,40.3441092,-3.6911854,"Plaza Pinazo, 14, San Cristóbal, Madrid",120.0,4,2,1,0.0,1,173000,False,True,True,0,False,135,21,1,519,"Piso en venta en plaza Pinazo, 14","San Cristóbal, Madrid",111.0,"Plaza Pinazo, 14",False,Plaza Pinazo,14,,False,,Neighborhood 135: San Cristóbal (1308.89 €/m2) - District 21: Villaverde,sale,827,,False,1442,True,HouseType 1: Pisos,False,,,,,True,True,,,,,,,,,,,,,,False,False,True,False
21222,40.3513789,-3.6801951,"Calle Miguel Solas, Butarque, Madrid",85.0,3,1,1,0.0,4,140200,False,False,True,0,False,131,21,1,520,Piso en venta en calle Miguel Solas,"Butarque, Madrid",76.0,Calle Miguel Solas,True,Calle Miguel Solas,,,False,,Neighborhood 131: Butarque (2197.8 €/m2) - District 21: Villaverde,sale,706,,False,1649,True,HouseType 1: Pisos,False,1997.0,,,,,,,,True,,,,,,,,,,,,,,
21221,40.3568825,-3.6814776,"Avenida de los Rosales, 62, Butarque, Madrid",110.0,2,2,1,0.0,2,225000,False,True,True,0,True,131,21,1,521,"Piso en venta en avenida de los Rosales, 62","Butarque, Madrid",,"Avenida de los Rosales, 62",False,Avenida de los Rosales,62,,False,,Neighborhood 131: Butarque (2197.8 €/m2) - District 21: Villaverde,sale,994,,False,2045,True,HouseType 1: Pisos,False,,,,,True,True,,True,,,True,,,,True,,,True,0.0,,,,
21220,40.3577819,-3.6835733,"Calle Grazia Deledda, 9, Los Rosales, Madrid",116.0,3,2,1,0.0,5,295000,False,True,True,0,True,133,21,1,522,"Piso en venta en calle Grazia Deledda, 9","Los Rosales, Madrid",82.0,"Calle Grazia Deledda, 9",False,Calle Grazia Deledda,9,,False,,Neighborhood 133: Los Rosales (1827.79 €/m2) - District 21: Villaverde,sale,1187,,False,2543,True,HouseType 1: Pisos,False,2002.0,False,True,,True,True,,True,True,True,True,,,True,True,,,True,0.0,False,False,False,True
21218,40.3409889,-3.6748546,"Calle de Berrocal, 70, Butarque, Madrid",115.0,3,2,1,0.0,6,275000,False,True,True,0,True,131,21,1,524,"Piso en venta en calle de Berrocal, 70","Butarque, Madrid",,"Calle de Berrocal, 70",False,Calle de Berrocal,70,,False,,Neighborhood 131: Butarque (2197.8 €/m2) - District 21: Villaverde,sale,1135,,False,2391,True,HouseType 1: Pisos,False,,False,True,,True,True,,True,True,,True,,,True,True,,,True,0.0,False,False,True,False
21216,40.3530902,-3.6987037,"Calle de la del Manojo de Rosas, 65 -69, Los Ángeles, Madrid",95.0,4,1,1,0.0,2,175000,False,True,True,0,True,132,21,1,526,"Piso en venta en calle de la del Manojo de Rosas, 65 -69","Los Ángeles, Madrid",84.0,"Calle de la del Manojo de Rosas, 65 -69",False,Calle de la del Manojo de Rosas,65 -69,,,,Neighborhood 132: Los Ángeles (1796.68 €/m2) - District 21: Villaverde,sale,833,,False,1842,True,HouseType 1: Pisos,False,1970.0,False,True,,True,,,,True,,,,,True,,,,False,25000.0,False,True,False,False
21212,40.3570425,-3.685489,"Flora Tristán, 6, Los Rosales, Madrid",100.0,3,2,1,0.0,5,285000,False,True,True,7,True,133,21,1,530,"Piso en venta en Flora Tristán, 6","Los Rosales, Madrid",,"Flora Tristán, 6",False,Flora Tristán,6,,False,,Neighborhood 133: Los Rosales (1827.79 €/m2) - District 21: Villaverde,sale,1161,,False,2850,True,HouseType 1: Pisos,False,2002.0,False,True,,True,True,,True,,,True,,,True,,,,True,0.0,False,False,True,False
21193,40.3521173,-3.6943673,"Calle Lazcano, Los Ángeles, Madrid",62.0,2,1,1,0.0,5,111113,False,False,True,2,False,132,21,1,549,Piso en venta en calle Lazcano,"Los Ángeles, Madrid",,Calle Lazcano,True,Calle Lazcano,,,False,,Neighborhood 132: Los Ángeles (1796.68 €/m2) - District 21: Villaverde,sale,588,,False,1792,True,HouseType 1: Pisos,,,,,,,,,,,,,,,,,,,,,,,,
21187,40.3486538,-3.6846931,"Calle de Benimamet, San Cristóbal, Madrid",60.0,2,1,1,0.0,5,70000,False,False,True,0,False,135,21,1,555,Piso en venta en calle de Benimamet,"San Cristóbal, Madrid",57.0,Calle de Benimamet,True,Calle de Benimamet,,,False,,Neighborhood 135: San Cristóbal (1308.89 €/m2) - District 21: Villaverde,sale,398,,False,1167,True,HouseType 1: Pisos,False,1960.0,False,True,,,,,,,,,,,,,,,,,False,False,True,True
21185,40.2851537,-3.7934286,"Camino LEGANES, San Andrés, Madrid",90.0,3,1,1,0.0,2,190000,False,False,True,0,True,134,21,1,557,Piso en venta en camino LEGANES,"San Andrés, Madrid",85.0,Camino LEGANES,True,Camino LEGANES,,,False,,Neighborhood 134: San Andrés (1617.18 €/m2) - District 21: Villaverde,sale,884,,False,2111,True,HouseType 1: Pisos,False,,False,True,,True,True,,,True,True,True,,,,,,,False,20.0,False,False,True,True
21179,40.343895,-3.6765795,"Calle Silvinita, 1, Butarque, Madrid",187.0,3,2,1,0.0,-1,295000,False,True,True,0,True,131,21,1,563,"Piso en venta en calle Silvinita, 1","Butarque, Madrid",,"Calle Silvinita, 1",False,Calle Silvinita,1,,True,,Neighborhood 131: Butarque (2197.8 €/m2) - District 21: Villaverde,sale,1187,,False,1578,True,HouseType 1: Pisos,False,2003.0,False,True,,True,True,,True,True,True,True,,,True,True,,,True,0.0,False,True,False,False
21168,40.3554666,-3.6834951,"Calle del Americio, Butarque, Madrid",110.0,2,2,1,0.0,3,225000,False,True,True,0,True,131,21,1,574,Piso en venta en calle del Americio,"Butarque, Madrid",85.0,Calle del Americio,True,Calle del Americio,,,False,,Neighborhood 131: Butarque (2197.8 €/m2) - District 21: Villaverde,sale,994,,False,2045,True,HouseType 1: Pisos,False,2004.0,False,True,,True,True,,True,,,True,,,True,True,,,True,0.0,False,True,False,True
21166,40.349196,-3.6996198,"Paseo Talleres, Madrid, Los Ángeles, Madrid",65.0,3,1,1,0.0,5,85000,True,False,True,0,False,132,21,1,576,"Piso en venta en paseo Talleres, Madrid","Los Ángeles, Madrid",60.0,"Paseo Talleres, Madrid",True,"Paseo Talleres, Madrid",,,False,,Neighborhood 132: Los Ángeles (1796.68 €/m2) - District 21: Villaverde,sale,471,,False,1308,True,HouseType 1: Pisos,False,1965.0,,,,,,,,True,,,,,,,,,,,False,False,True,True
21163,40.3425833,-3.6883594,"Calle de godella, San Cristóbal, Madrid",80.0,3,2,1,0.0,4,130000,False,True,True,3,False,135,21,1,579,Piso en venta en calle de godella,"San Cristóbal, Madrid",,Calle de godella,True,Calle de godella,,,False,,Neighborhood 135: San Cristóbal (1308.89 €/m2) - District 21: Villaverde,sale,666,,False,1625,True,HouseType 1: Pisos,False,2011.0,False,True,,,True,,,True,True,True,,,True,,,,,,,,,
21160,40.3528527,-3.6846635,"Paseo estación, Los Rosales, Madrid",93.0,3,1,1,0.0,2,125000,False,False,True,0,False,133,21,1,582,Piso en venta en paseo estación,"Los Rosales, Madrid",74.0,Paseo estación,True,Paseo estación,,,False,,Neighborhood 133: Los Rosales (1827.79 €/m2) - District 21: Villaverde,sale,646,,False,1344,True,HouseType 1: Pisos,False,1961.0,False,True,,,,,,True,True,,,,,,,,,,False,True,False,False
21159,40.343895,-3.6765795,"Calle Silvinita, Butarque, Madrid",120.0,3,2,2,0.0,6,250000,False,True,True,3,True,131,21,4,583,Dúplex en venta en calle Silvinita,"Butarque, Madrid",90.0,Calle Silvinita,True,Calle Silvinita,,,False,,Neighborhood 131: Butarque (2197.8 €/m2) - District 21: Villaverde,sale,1067,,False,2083,True,HouseType 4: Dúplex,False,2003.0,False,True,,True,True,,True,True,,True,,,,True,,,True,0.0,False,True,False,False
21158,40.3560432,-3.6820183,"EUSKALDUNA, Butarque, Madrid",78.0,2,1,1,0.0,1,198500,False,True,True,3,True,131,21,1,584,Piso en venta en EUSKALDUNA,"Butarque, Madrid",62.0,EUSKALDUNA,True,EUSKALDUNA,,,False,,Neighborhood 131: Butarque (2197.8 €/m2) - District 21: Villaverde,sale,912,,False,2545,True,HouseType 1: Pisos,False,2003.0,False,True,,True,True,,True,,True,True,,,,True,,,True,0.0,False,True,False,False
21157,40.3376362,-3.6755232,"Berrocal, Butarque, Madrid",147.0,4,2,1,0.0,7,350000,False,True,True,0,True,131,21,5,585,Ático en venta en Berrocal,"Butarque, Madrid",,Berrocal,True,Berrocal,,,False,,Neighborhood 131: Butarque (2197.8 €/m2) - District 21: Villaverde,sale,1323,,False,2381,True,HouseType 5: Áticos,False,2002.0,False,True,,True,True,,True,True,,True,,,True,True,,,True,0.0,,,,
21156,40.3505829,-3.6871966,"Calle Leonor Góngora, Los Rosales, Madrid",52.0,2,1,1,0.0,1,99900,False,False,True,3,False,133,21,1,586,Piso en venta en calle Leonor Góngora,"Los Rosales, Madrid",,Calle Leonor Góngora,True,Calle Leonor Góngora,,,False,,Neighborhood 133: Los Rosales (1827.79 €/m2) - District 21: Villaverde,sale,539,,False,1921,True,HouseType 1: Pisos,False,1968.0,False,True,,True,True,,,,,,,,,,,,,,,,,
21153,40.3441954,-3.6750091,"limonita, Butarque, Madrid",200.0,5,3,2,0.0,4,330000,False,True,True,0,True,131,21,4,589,Dúplex en venta en limonita,"Butarque, Madrid",164.0,limonita,True,limonita,,,False,,Neighborhood 131: Butarque (2197.8 €/m2) - District 21: Villaverde,sale,1275,,False,1650,True,HouseType 4: Dúplex,False,2002.0,False,True,,True,True,,True,True,,True,,,True,True,,,True,0.0,,,,
21148,40.3425833,-3.6883594,"godella, San Cristóbal, Madrid",62.0,2,1,1,0.0,2,93000,False,False,True,3,False,135,21,1,594,Piso en venta en godella,"San Cristóbal, Madrid",,godella,True,godella,,,False,,Neighborhood 135: San Cristóbal (1308.89 €/m2) - District 21: Villaverde,sale,508,,False,1500,True,HouseType 1: Pisos,False,1960.0,,,,,,,,,,,,,,,,,,,,,,
21146,40.3445124,-3.6894412,"Calle de Godella, 199, San Cristóbal, Madrid",65.0,3,1,1,0.0,2,95000,False,False,True,1,False,135,21,1,596,"Piso en venta en calle de Godella, 199","San Cristóbal, Madrid",,"Calle de Godella, 199",False,Calle de Godella,199,,False,,Neighborhood 135: San Cristóbal (1308.89 €/m2) - District 21: Villaverde,sale,517,,False,1462,True,HouseType 1: Pisos,False,1960.0,False,True,,,True,,,True,,,,,,,,,,,False,False,True,False
21145,40.3517541,-3.6841646,"Calle Manganeso, Los Rosales, Madrid",80.0,3,1,1,0.0,1,128000,True,False,True,3,False,133,21,1,597,Piso en venta en calle Manganeso,"Los Rosales, Madrid",,Calle Manganeso,True,Calle Manganeso,,,False,,Neighborhood 133: Los Rosales (1827.79 €/m2) - District 21: Villaverde,sale,658,,False,1600,True,HouseType 1: Pisos,False,1967.0,False,True,,,,,,True,,,,,,,,,,,False,True,False,False
21142,40.3625408,-3.6995671,"Calle de Santa Escolástica, 1, Los Ángeles, Madrid",83.0,3,1,1,0.0,8,147000,True,True,True,0,True,132,21,1,600,"Piso en venta en calle de Santa Escolástica, 1","Los Ángeles, Madrid",,"Calle de Santa Escolástica, 1",False,Calle de Santa Escolástica,1,,False,,Neighborhood 132: Los Ángeles (1796.68 €/m2) - District 21: Villaverde,sale,732,,False,1771,True,HouseType 1: Pisos,False,,,,,,,,,True,,,,,,,,,True,0.0,False,True,True,False
21137,40.3528527,-3.6846635,"Paseo Estación, 5, Los Rosales, Madrid",75.0,2,1,1,0.0,1,125000,False,False,True,4,False,133,21,1,605,"Piso en venta en paseo Estación, 5","Los Rosales, Madrid",60.0,"Paseo Estación, 5",False,Paseo Estación,5,,False,,Neighborhood 133: Los Rosales (1827.79 €/m2) - District 21: Villaverde,sale,646,,False,1667,True,HouseType 1: Pisos,False,,,,,True,,,,True,,,,,,,,,,,False,True,False,True
21135,40.350704,-3.6791499,"Calle Calcio, Butarque, Madrid",106.0,3,2,1,0.0,1,249500,False,True,True,6,True,131,21,1,607,Piso en venta en calle Calcio,"Butarque, Madrid",78.0,Calle Calcio,True,Calle Calcio,,,False,,Neighborhood 131: Butarque (2197.8 €/m2) - District 21: Villaverde,sale,1065,,False,2354,True,HouseType 1: Pisos,False,2019.0,False,True,,True,True,,True,True,,True,,,,True,,,True,0.0,False,False,False,True
21133,40.3516949,-3.6886659,"Calle de Juan José Martínez Seco, Madrid, Los Rosales, Madrid",70.0,2,1,1,0.0,1,202000,False,True,True,3,False,133,21,1,609,"Piso en venta en calle de Juan José Martínez Seco, Madrid","Los Rosales, Madrid",57.0,"Calle de Juan José Martínez Seco, Madrid",True,"Calle de Juan José Martínez Seco, Madrid",,,False,,Neighborhood 133: Los Rosales (1827.79 €/m2) - District 21: Villaverde,sale,923,,False,2886,True,HouseType 1: Pisos,False,2009.0,False,True,,,True,,,True,,True,,,True,,,,,,True,False,True,False
21128,40.3505829,-3.6871966,"Leonor Gongora, Los Rosales, Madrid",78.0,2,1,1,0.0,1,107900,False,False,True,0,False,133,21,1,614,Piso en venta en Leonor Gongora,"Los Rosales, Madrid",68.0,Leonor Gongora,True,Leonor Gongora,,,False,,Neighborhood 133: Los Rosales (1827.79 €/m2) - District 21: Villaverde,sale,574,,False,1383,True,HouseType 1: Pisos,False,,,,,,True,,,True,,,,,,,,,,,,,,
21119,40.3520865,-3.6799344,"Calle Mica, Butarque, Madrid",104.0,3,2,1,0.0,1,155000,True,True,True,0,False,131,21,1,623,Piso en venta en calle Mica,"Butarque, Madrid",85.0,Calle Mica,True,Calle Mica,,,False,,Neighborhood 131: Butarque (2197.8 €/m2) - District 21: Villaverde,sale,762,,False,1490,True,HouseType 1: Pisos,False,,False,True,,,True,,,,True,True,,,,,,,,,False,True,False,False
21118,40.3600535,-3.6854073,"Calle de la Generosidad, Los Rosales, Madrid",125.0,3,2,1,0.0,1,210000,False,True,True,0,True,133,21,1,624,Piso en venta en calle de la Generosidad,"Los Rosales, Madrid",76.0,Calle de la Generosidad,True,Calle de la Generosidad,,,False,,Neighborhood 133: Los Rosales (1827.79 €/m2) - District 21: Villaverde,sale,948,,False,1680,True,HouseType 1: Pisos,False,1996.0,False,True,,,True,,,,,True,,,True,,,,True,0.0,,,,
21116,40.3614529,-3.6894243,"Calle de la Unanimidad, Los Rosales, Madrid",114.0,3,2,1,0.0,3,175000,False,True,True,0,True,133,21,1,626,Piso en venta en calle de la Unanimidad,"Los Rosales, Madrid",,Calle de la Unanimidad,True,Calle de la Unanimidad,,,False,,Neighborhood 133: Los Rosales (1827.79 €/m2) - District 21: Villaverde,sale,833,,False,1535,True,HouseType 1: Pisos,False,1994.0,False,True,,True,True,,,,,,,,True,,,,True,0.0,False,False,False,True
21113,40.3512213,-3.6866576,"Calle de José del Pino, Los Rosales, Madrid",75.0,3,1,1,0.0,2,136000,False,False,True,0,False,133,21,1,629,Piso en venta en calle de José del Pino,"Los Rosales, Madrid",,Calle de José del Pino,True,Calle de José del Pino,,,False,,Neighborhood 133: Los Rosales (1827.79 €/m2) - District 21: Villaverde,sale,690,,False,1813,True,HouseType 1: Pisos,False,,False,True,,,,,,True,,,,,,,,,,,,,,
21111,40.3409889,-3.6748546,"Calle de Berrocal, 14, Butarque, Madrid",162.0,4,2,1,0.0,4,345000,False,True,True,6,True,131,21,1,631,"Piso en venta en calle de Berrocal, 14","Butarque, Madrid",137.0,"Calle de Berrocal, 14",False,Calle de Berrocal,14,,False,,Neighborhood 131: Butarque (2197.8 €/m2) - District 21: Villaverde,sale,1311,,False,2130,True,HouseType 1: Pisos,False,2001.0,False,True,,True,True,,True,True,True,True,,,True,,,,True,0.0,False,True,False,False
21110,40.3581942,-3.6911269,"Calle de la dulzura, 12, Los Rosales, Madrid",108.0,3,2,1,0.0,3,195000,False,True,True,3,True,133,21,1,632,"Piso en venta en calle de la dulzura, 12","Los Rosales, Madrid",86.0,"Calle de la dulzura, 12",False,Calle de la dulzura,12,,False,,Neighborhood 133: Los Rosales (1827.79 €/m2) - District 21: Villaverde,sale,901,,False,1806,True,HouseType 1: Pisos,False,,False,True,,True,True,,,,,,,,True,,,,True,0.0,,,,
21095,40.2806456,-3.7953983,"Paseo Talleres , 17, San Andrés, Madrid",107.0,3,2,2,0.0,-1,291000,False,True,True,0,True,134,21,4,647,"Dúplex en venta en paseo Talleres , 17","San Andrés, Madrid",,"Paseo Talleres , 17",False,Paseo Talleres ,17,,True,,Neighborhood 134: San Andrés (1617.18 €/m2) - District 21: Villaverde,sale,1177,,False,2720,True,HouseType 4: Dúplex,True,,,,,,,,,True,,True,,,,,,,True,0.0,,,,
21090,40.3570425,-3.685489,"Calle Flora Tristán, 8, Los Rosales, Madrid",99.0,3,2,1,0.0,1,229000,False,True,True,0,False,133,21,1,652,"Piso en venta en calle Flora Tristán, 8","Los Rosales, Madrid",72.0,"Calle Flora Tristán, 8",False,Calle Flora Tristán,8,,False,,Neighborhood 133: Los Rosales (1827.79 €/m2) - District 21: Villaverde,sale,1006,,False,2313,True,HouseType 1: Pisos,False,2002.0,False,True,,,,,True,,,True,,,True,True,,,,,False,False,True,False
21056,40.3545688,-3.6899005,"Calle de Villafuerte, Los Rosales, Madrid",70.0,3,1,1,0.0,7,129000,False,True,True,0,False,133,21,1,686,Piso en venta en calle de Villafuerte,"Los Rosales, Madrid",,Calle de Villafuerte,True,Calle de Villafuerte,,,False,,Neighborhood 133: Los Rosales (1827.79 €/m2) - District 21: Villaverde,sale,662,,False,1843,True,HouseType 1: Pisos,False,,True,False,,,True,,,True,,,,,,,,,,,,,,
21049,40.3516087,-3.6969212,"arechavaleta, Los Ángeles, Madrid",73.0,3,1,1,0.0,0,115000,False,False,True,0,False,132,21,1,693,Piso en venta en arechavaleta,"Los Ángeles, Madrid",68.0,arechavaleta,True,arechavaleta,,,True,,Neighborhood 132: Los Ángeles (1796.68 €/m2) - District 21: Villaverde,sale,604,,False,1575,True,HouseType 1: Pisos,False,,,,,,,,,,,,,,,,,,,,,,,
21045,40.3513573,-3.6898232,"Calle Villapalacios, Los Rosales, Madrid",97.0,4,1,1,0.0,1,160000,False,False,True,0,False,133,21,1,697,Piso en venta en calle Villapalacios,"Los Rosales, Madrid",77.0,Calle Villapalacios,True,Calle Villapalacios,,,False,,Neighborhood 133: Los Rosales (1827.79 €/m2) - District 21: Villaverde,sale,780,,False,1649,True,HouseType 1: Pisos,False,1970.0,False,True,,True,,,,True,,,,,,,,,,,,,,
21044,40.3484649,-3.6886982,"Eduardo Minguito, Los Rosales, Madrid",65.0,2,1,1,0.0,2,126000,False,False,False,0,False,133,21,1,698,Piso en venta en Eduardo Minguito,"Los Rosales, Madrid",,Eduardo Minguito,True,Eduardo Minguito,,,False,,Neighborhood 133: Los Rosales (1827.79 €/m2) - District 21: Villaverde,sale,650,,False,1938,True,HouseType 1: Pisos,False,1962.0,False,True,,True,,,,,True,,,,,,,,,,,,,
21043,40.3540323,-3.6816541,"Calle Concepción de la Oliva s/n, Butarque, Madrid",56.0,3,1,1,0.0,1,95000,False,False,True,3,False,131,21,1,699,Piso en venta en calle Concepción de la Oliva s/n,"Butarque, Madrid",53.0,Calle Concepción de la Oliva s/n,False,,,,False,,Neighborhood 131: Butarque (2197.8 €/m2) - District 21: Villaverde,sale,517,,False,1696,True,HouseType 1: Pisos,,1966.0,,,,,,,,,,,,,,,,,,,,,,
21042,40.3445938,-3.6721316,"Avenida de los Rosales, Butarque, Madrid",122.0,3,2,1,0.0,3,205000,False,True,True,0,True,131,21,1,700,Piso en venta en avenida de los Rosales,"Butarque, Madrid",,Avenida de los Rosales,True,Avenida de los Rosales,,,False,,Neighborhood 131: Butarque (2197.8 €/m2) - District 21: Villaverde,sale,933,,False,1680,True,HouseType 1: Pisos,False,,False,True,,True,True,,,True,,,,,True,True,,,True,0.0,,,,
21037,40.3548912,-3.6811226,"Calle Uranio, 4, Butarque, Madrid",56.0,3,1,1,0.0,1,89000,False,False,True,0,False,131,21,1,705,"Piso en venta en calle Uranio, 4","Butarque, Madrid",,"Calle Uranio, 4",False,Calle Uranio,4,,False,,Neighborhood 131: Butarque (2197.8 €/m2) - District 21: Villaverde,sale,489,,False,1589,True,HouseType 1: Pisos,False,,,,,,,,,,,,,,,,,,,,,,,
21034,40.34903,-3.6760582,"estefanita, Butarque, Madrid",110.0,3,2,1,0.0,6,240000,False,True,True,3,True,131,21,1,708,Piso en venta en estefanita,"Butarque, Madrid",,estefanita,True,estefanita,,,False,,Neighborhood 131: Butarque (2197.8 €/m2) - District 21: Villaverde,sale,1038,,False,2182,True,HouseType 1: Pisos,False,2003.0,False,True,,True,True,,True,,,True,,,True,,,,True,0.0,False,False,False,True
21032,40.3505829,-3.6871966,"Calle Leonor Góngora, 27, Los Rosales, Madrid",68.0,2,1,1,0.0,1,104000,False,False,True,4,False,133,21,1,710,"Piso en venta en calle Leonor Góngora, 27","Los Rosales, Madrid",,"Calle Leonor Góngora, 27",False,Calle Leonor Góngora,27,,False,,Neighborhood 133: Los Rosales (1827.79 €/m2) - District 21: Villaverde,sale,557,,False,1529,True,HouseType 1: Pisos,False,,,,,,True,,,True,,,,,,,,,,,,,,
21028,40.3484493,-3.6908676,"Santa Florencia, Los Rosales, Madrid",64.0,2,1,1,0.0,3,112000,False,False,True,1,False,133,21,1,714,Piso en venta en Santa Florencia,"Los Rosales, Madrid",51.0,Santa Florencia,True,Santa Florencia,,,False,,Neighborhood 133: Los Rosales (1827.79 €/m2) - District 21: Villaverde,sale,592,,False,1750,True,HouseType 1: Pisos,False,1967.0,False,True,,,True,,,True,,,,,,,,,,,,,,
21021,40.349769,-3.6987056,"Calle de la Vírgen de los Desamparados, Los Ángeles, Madrid",89.0,3,1,1,0.0,1,165000,False,True,True,0,False,132,21,1,721,Piso en venta en calle de la Vírgen de los Desamparados,"Los Ángeles, Madrid",,Calle de la Vírgen de los Desamparados,True,Calle de la Vírgen de los Desamparados,,,False,,Neighborhood 132: Los Ángeles (1796.68 €/m2) - District 21: Villaverde,sale,798,,False,1854,True,HouseType 1: Pisos,False,1977.0,True,False,,True,,,,True,,,,,,,,,,,,,,
21010,40.3605093,-3.6943392,"Calle Pan y Toros, 7, Los Ángeles, Madrid",100.0,3,2,1,0.0,4,185000,False,True,True,3,False,132,21,1,732,"Piso en venta en calle Pan y Toros, 7","Los Ángeles, Madrid",85.0,"Calle Pan y Toros, 7",False,Calle Pan y Toros,7,,False,,Neighborhood 132: Los Ángeles (1796.68 €/m2) - District 21: Villaverde,sale,868,,False,1850,True,HouseType 1: Pisos,False,1965.0,True,False,,True,True,,,True,,,,,True,,,,,,False,True,False,True
21008,40.3538503,-3.6983625,"Calle de la del Manojo de Rosas, Madrid, Los Ángeles, Madrid",81.0,3,1,1,0.0,4,175000,False,True,True,0,False,132,21,1,734,"Piso en venta en calle de la del Manojo de Rosas, Madrid","Los Ángeles, Madrid",,"Calle de la del Manojo de Rosas, Madrid",True,"Calle de la del Manojo de Rosas, Madrid",,,False,,Neighborhood 132: Los Ángeles (1796.68 €/m2) - District 21: Villaverde,sale,833,,False,2160,True,HouseType 1: Pisos,False,1950.0,False,True,,True,True,,,True,,,,,True,,,,,,False,False,True,False
21002,40.3451683,-3.6754238,"acantita, Butarque, Madrid",105.0,4,2,1,0.0,4,251650,False,True,True,0,True,131,21,1,740,Piso en venta en acantita,"Butarque, Madrid",78.0,acantita,True,acantita,,,False,,Neighborhood 131: Butarque (2197.8 €/m2) - District 21: Villaverde,sale,1071,,False,2397,True,HouseType 1: Pisos,False,2002.0,False,True,,True,True,,True,True,,True,,,True,,,,True,0.0,False,False,True,False
20999,40.3538503,-3.6983625,"MANOJO DE ROSAS, Los Ángeles, Madrid",96.0,4,1,1,0.0,6,159000,True,True,True,0,False,132,21,1,743,Piso en venta en MANOJO DE ROSAS,"Los Ángeles, Madrid",,MANOJO DE ROSAS,True,MANOJO DE ROSAS,,,False,,Neighborhood 132: Los Ángeles (1796.68 €/m2) - District 21: Villaverde,sale,777,,False,1656,True,HouseType 1: Pisos,False,1966.0,,,,True,,,,True,,,,,,,,,,,,,,
20991,40.3517541,-3.6841646,"Calle Manganeso, 7, Los Rosales, Madrid",80.0,3,1,1,0.0,1,128000,True,False,True,3,False,133,21,1,751,"Piso en venta en calle Manganeso, 7","Los Rosales, Madrid",,"Calle Manganeso, 7",False,Calle Manganeso,7,,False,,Neighborhood 133: Los Rosales (1827.79 €/m2) - District 21: Villaverde,sale,658,,False,1600,True,HouseType 1: Pisos,False,1967.0,False,True,,,,,,True,,,,,,,,,,,False,True,False,False
20990,40.3431235,-3.6855057,"Calle de Rocafort, 84, San Cristóbal, Madrid",61.0,3,1,1,0.0,5,95000,False,True,True,0,False,135,21,1,752,"Piso en venta en calle de Rocafort, 84","San Cristóbal, Madrid",57.0,"Calle de Rocafort, 84",False,Calle de Rocafort,84,,False,,Neighborhood 135: San Cristóbal (1308.89 €/m2) - District 21: Villaverde,sale,517,,False,1557,True,HouseType 1: Pisos,False,1960.0,,,,,,,,True,,,,,,,,,,,False,False,True,False
20982,40.3602499,-3.6943712,"Calle Pan y Toros, Los Ángeles, Madrid",78.0,3,1,1,0.0,2,129900,True,True,True,1,False,132,21,1,760,Piso en venta en calle Pan y Toros,"Los Ángeles, Madrid",65.0,Calle Pan y Toros,True,Calle Pan y Toros,,,,,Neighborhood 132: Los Ángeles (1796.68 €/m2) - District 21: Villaverde,sale,666,,False,1665,True,HouseType 1: Pisos,False,,,,,True,,,,,,,,,True,,,,,,,,,
20980,40.3445938,-3.6721316,"Avenida de los Rosales, 107, Butarque, Madrid",112.0,4,2,1,0.0,6,380000,False,True,True,4,True,131,21,5,762,"Ático en venta en avenida de los Rosales, 107","Butarque, Madrid",102.0,"Avenida de los Rosales, 107",False,Avenida de los Rosales,107,,False,,Neighborhood 131: Butarque (2197.8 €/m2) - District 21: Villaverde,sale,1393,,False,3393,True,HouseType 5: Áticos,False,1993.0,,,,True,True,,,True,,,,,,,,,True,0.0,False,False,False,True
20977,40.345152,-3.6907571,"Calle Burjasot, San Cristóbal, Madrid",70.0,2,1,1,0.0,1,97500,False,True,True,2,False,135,21,1,765,Piso en venta en calle Burjasot,"San Cristóbal, Madrid",57.0,Calle Burjasot,True,Calle Burjasot,,,False,,Neighborhood 135: San Cristóbal (1308.89 €/m2) - District 21: Villaverde,sale,528,,False,1393,True,HouseType 1: Pisos,,,,,,True,,,,,,,,,,,,,,,,,,
20975,40.3475755,-3.6771178,"berrocal, 3, Butarque, Madrid",119.0,3,2,1,0.0,3,269000,False,True,True,0,True,131,21,1,767,"Piso en venta en berrocal, 3","Butarque, Madrid",91.0,"berrocal, 3",False,berrocal,3,,False,,Neighborhood 131: Butarque (2197.8 €/m2) - District 21: Villaverde,sale,1119,,False,2261,True,HouseType 1: Pisos,False,2004.0,False,True,,True,True,,True,,,True,,,True,True,,,True,0.0,,,,
20966,40.3516003,-3.6926224,"Calle de Juan José Martínez Seco s/n, Los Rosales, Madrid",80.0,4,2,1,0.0,2,135000,False,False,True,1,False,133,21,1,776,Piso en venta en calle de Juan José Martínez Seco s/n,"Los Rosales, Madrid",,Calle de Juan José Martínez Seco s/n,False,,,,False,,Neighborhood 133: Los Rosales (1827.79 €/m2) - District 21: Villaverde,sale,686,,False,1688,True,HouseType 1: Pisos,,1968.0,,,,,,,,,,,,,,,,,,,,,,
20960,40.4023759,-3.6037567,"Calle Canteras de Tilly, 14, Casco Histórico de Vicálvaro, Madrid",60.0,2,1,1,0.0,4,137000,False,False,True,3,False,125,19,1,782,"Piso en venta en calle Canteras de Tilly, 14","Casco Histórico de Vicálvaro, Madrid",56.0,"Calle Canteras de Tilly, 14",False,Calle Canteras de Tilly,14,,False,,Neighborhood 125: Casco Histórico de Vicálvaro (2064.65 €/m2) - District 19: Vicálvaro,sale,694,,False,2283,True,HouseType 1: Pisos,False,1965.0,,,,,,,,,,,,,,,,,,,True,False,False,False
20958,40.4014398,-3.6057291,"Calle Rastro, 8, Casco Histórico de Vicálvaro, Madrid",117.0,2,2,2,0.0,1,249000,False,False,True,3,True,125,19,4,784,"Dúplex en venta en calle Rastro, 8","Casco Histórico de Vicálvaro, Madrid",94.0,"Calle Rastro, 8",False,Calle Rastro,8,,False,,Neighborhood 125: Casco Histórico de Vicálvaro (2064.65 €/m2) - District 19: Vicálvaro,sale,1064,,False,2128,True,HouseType 4: Dúplex,False,2000.0,,,,True,True,,,True,,True,,,,,,,True,0.0,False,False,False,True
20954,40.4048088,-3.6072494,"Calle Lago Erie, Casco Histórico de Vicálvaro, Madrid",61.0,2,1,1,0.0,3,125000,False,False,True,3,False,125,19,1,788,Piso en venta en calle Lago Erie,"Casco Histórico de Vicálvaro, Madrid",,Calle Lago Erie,True,Calle Lago Erie,,,False,,Neighborhood 125: Casco Histórico de Vicálvaro (2064.65 €/m2) - District 19: Vicálvaro,sale,646,,False,2049,True,HouseType 1: Pisos,,,,,,,True,,,,,,,,,,,,,,,,,
20943,40.4012702,-3.6032254,"Calle Lago Balaton, Casco Histórico de Vicálvaro, Madrid",50.0,2,1,1,0.0,2,108000,False,False,True,2,False,125,19,1,799,Piso en venta en calle Lago Balaton,"Casco Histórico de Vicálvaro, Madrid",,Calle Lago Balaton,True,Calle Lago Balaton,,,False,,Neighborhood 125: Casco Histórico de Vicálvaro (2064.65 €/m2) - District 19: Vicálvaro,sale,574,,False,2160,True,HouseType 1: Pisos,False,,,,,,,,,True,,,,,,,,,,,,,,
20936,40.4034866,-3.6075949,"velilla, Casco Histórico de Vicálvaro, Madrid",87.0,2,1,1,0.0,-1,169000,False,False,True,0,False,125,19,1,806,Piso en venta en velilla,"Casco Histórico de Vicálvaro, Madrid",,velilla,True,velilla,,,True,,Neighborhood 125: Casco Histórico de Vicálvaro (2064.65 €/m2) - District 19: Vicálvaro,sale,813,,False,1943,True,HouseType 1: Pisos,False,1968.0,False,True,,,,,,True,,,,,,True,,,,,False,False,True,False
20929,40.3951356,-3.6076381,"Calle Minerva, 19, Valdebernardo - Valderribas, Madrid",86.0,2,2,1,0.0,1,250000,False,True,True,0,True,127,19,1,813,"Piso en venta en calle Minerva, 19","Valdebernardo - Valderribas, Madrid",76.0,"Calle Minerva, 19",False,Calle Minerva,19,,False,,Neighborhood 127: Valdebernardo - Valderribas (2750.0 €/m2) - District 19: Vicálvaro,sale,1067,,False,2907,True,HouseType 1: Pisos,False,2003.0,,,,,True,,True,,,True,,,,,,,True,0.0,False,True,False,False
20923,40.4038967,-3.6051999,"Calle de la Fuente de San Pedro, Casco Histórico de Vicálvaro, Madrid",137.0,2,1,2,0.0,-5,296500,False,False,True,3,False,125,19,2,819, Casa o chalet en venta en calle de la Fuente de San Pedro,"Casco Histórico de Vicálvaro, Madrid",,Calle de la Fuente de San Pedro,True,Calle de la Fuente de San Pedro,,,,,Neighborhood 125: Casco Histórico de Vicálvaro (2064.65 €/m2) - District 19: Vicálvaro,sale,1191,,False,2164,True,HouseType 2: Casa o chalet,False,,False,True,,,,,,,,,,,,,,,,,,,,
20917,40.404273,-3.6022617,"Calle Mercurio, Casco Histórico de Vicálvaro, Madrid",60.0,2,1,1,0.0,2,119900,False,False,True,2,False,125,19,1,825,Piso en venta en calle Mercurio,"Casco Histórico de Vicálvaro, Madrid",,Calle Mercurio,True,Calle Mercurio,,,False,,Neighborhood 125: Casco Histórico de Vicálvaro (2064.65 €/m2) - District 19: Vicálvaro,sale,625,,False,1998,True,HouseType 1: Pisos,,,,,,,,,,True,,,,,,,,,,,,,,
20916,40.4046219,-3.6149449,"castellana, Casco Histórico de Vicálvaro, Madrid",275.0,5,2,2,0.0,-5,385000,True,False,True,0,False,125,19,2,826, Chalet pareado en venta en castellana,"Casco Histórico de Vicálvaro, Madrid",,castellana,True,castellana,,,False,,Neighborhood 125: Casco Histórico de Vicálvaro (2064.65 €/m2) - District 19: Vicálvaro,sale,1405,,False,1400,True,HouseType 2: Casa o chalet,False,1968.0,,,,,,,,True,,,,,,,,,,,,,,
20914,40.4042841,-3.6063536,"Calle del Lago Van, 10, Casco Histórico de Vicálvaro, Madrid",85.0,3,1,1,0.0,2,194000,False,False,True,4,False,125,19,1,828,"Piso en venta en calle del Lago Van, 10","Casco Histórico de Vicálvaro, Madrid",81.0,"Calle del Lago Van, 10",False,Calle del Lago Van,10,,False,,Neighborhood 125: Casco Histórico de Vicálvaro (2064.65 €/m2) - District 19: Vicálvaro,sale,897,,False,2282,True,HouseType 1: Pisos,False,1976.0,,,,True,True,,,True,,,,,,,,,,,False,True,False,False
20909,40.4047534,-3.6036396,"Calle Jardín de la Duquesa, Casco Histórico de Vicálvaro, Madrid",73.0,3,1,1,0.0,3,142000,False,False,True,3,False,125,19,1,833,Piso en venta en calle Jardín de la Duquesa,"Casco Histórico de Vicálvaro, Madrid",,Calle Jardín de la Duquesa,True,Calle Jardín de la Duquesa,,,False,,Neighborhood 125: Casco Histórico de Vicálvaro (2064.65 €/m2) - District 19: Vicálvaro,sale,713,,False,1945,True,HouseType 1: Pisos,False,,False,True,,True,,,,True,,,,,,,,,,,,,,
20901,40.4053463,-3.6058635,"Calle Mercurio, 6, Casco Histórico de Vicálvaro, Madrid",60.0,2,1,1,0.0,3,159000,False,True,True,0,False,125,19,1,841,"Piso en venta en calle Mercurio, 6","Casco Histórico de Vicálvaro, Madrid",51.0,"Calle Mercurio, 6",False,Calle Mercurio,6,,False,,Neighborhood 125: Casco Histórico de Vicálvaro (2064.65 €/m2) - District 19: Vicálvaro,sale,777,,False,2650,True,HouseType 1: Pisos,False,1965.0,False,True,,True,,,,True,True,,,,True,,,,,,True,False,False,True
20891,40.4042168,-3.6089576,"Calle San Cipriano, 31, Casco Histórico de Vicálvaro, Madrid",86.0,2,2,1,0.0,2,260000,False,True,True,0,True,125,19,1,851,"Piso en venta en calle San Cipriano, 31","Casco Histórico de Vicálvaro, Madrid",,"Calle San Cipriano, 31",False,Calle San Cipriano,31,,,,Neighborhood 125: Casco Histórico de Vicálvaro (2064.65 €/m2) - District 19: Vicálvaro,sale,1094,,False,3023,True,HouseType 1: Pisos,True,,,,,,,,True,,,True,,,,True,,,True,0.0,,,,
